Facility Name,City,State,Zip Code,Address,County,Latitude,Longitude,Primary NAICS Code,Industry Type (subparts),Industry Type (sectors),Total reported direct emissions,emission_types
121 REGIONAL DISPOSAL FACILITY,MELISSA,Texas,75454,3820 SAM RAYBURN HIGHWAY,COLLIN COUNTY,33.29857,-96.53586,562212,HH,Waste,504064.0,Total reported direct emissions<br>Methane (CH4) emissions <br>Municipal Landfills
23rd and 3rd,BROOKLYN,New York,11232,730 3rd Avenue,Kings,40.663,-74.0,221112,"C,D",Power Plants,60819.7,Total reported direct emissions<br>CO2 emissions (non-biogenic) <br>Methane (CH4) emissions <br>Nitrous Oxide (N2O) emissions <br>Stationary Combustion<br>Electricity Generation
3Bear Libby Gas Plant,Hobbs,New Mexico,88240,674 Marathon Rd,LEA COUNTY,32.540693,-103.522351,211130,"C,W-PROC",Petroleum and Natural Gas Systems,40521.812,Total reported direct emissions<br>CO2 emissions (non-biogenic) <br>Methane (CH4) emissions <br>Nitrous Oxide (N2O) emissions <br>Stationary Combustion<br>Petroleum and Natural Gas Systems – Processing
31st Street Landfill,WESTCHESTER,Illinois,60154,11700 W 31ST ST,COOK COUNTY,41.835129,-87.915924,562212,"C,HH",Waste,100500.948,Total reported direct emissions<br>CO2 emissions (non-biogenic) <br>Methane (CH4) emissions <br>Nitrous Oxide (N2O) emissions <br>Stationary Combustion<br>Municipal Landfills
3M BROWNWOOD,BROWNWOOD,Texas,76801,4501 HIGHWAY 377 SOUTH,BROWN COUNTY,31.671177,-98.996513,326113,"C,N",Minerals,29359.64,Total reported direct emissions<br>CO2 emissions (non-biogenic) <br>Methane (CH4) emissions <br>Nitrous Oxide (N2O) emissions <br>Stationary Combustion<br>Glass Production
3M CO,MAPLEWOOD,Minnesota,55144,,RAMSEY COUNTY,44.951,-92.9959,541715,C,Other,82308.238,Total reported direct emissions<br>CO2 emissions (non-biogenic) <br>Methane (CH4) emissions <br>Nitrous Oxide (N2O) emissions <br>Stationary Combustion
50 Buttes Gas Plant,Gillette,Wyoming,82716,3669 South Hwy 50,CAMPBELL COUNTY,43.760929,-105.785087,213112,"C,W-PROC",Petroleum and Natural Gas Systems,72243.536,Total reported direct emissions<br>CO2 emissions (non-biogenic) <br>Methane (CH4) emissions <br>Nitrous Oxide (N2O) emissions <br>Stationary Combustion<br>Petroleum and Natural Gas Systems – Processing
3M CO - GUIN,GUIN,Alabama,35563,6675 US HIGHWAY 43,MARION COUNTY,33.96548,-87.89936,326113,"C,N",Minerals,27083.0,Total reported direct emissions<br>CO2 emissions (non-biogenic) <br>Methane (CH4) emissions <br>Nitrous Oxide (N2O) emissions <br>Stationary Combustion<br>Glass Production
3M CO - WAUSAU DOWNTOWN,WAUSAU,Wisconsin,54401,144 ROSECRANS ST,MARATHON COUNTY,44.95018,-89.63766,212313,C,Other,46909.124,Total reported direct emissions<br>CO2 emissions (non-biogenic) <br>Methane (CH4) emissions <br>Nitrous Oxide (N2O) emissions <br>Stationary Combustion
3M COMPANY,DECATUR,Alabama,35609,1400 STATE DOCKS RD.,MORGAN COUNTY,34.641667,-87.038611,325211,"C,L,OO","Chemicals,Industrial Gas Suppliers",44016.264024,Total reported direct emissions<br>CO2 emissions (non-biogenic) <br>Methane (CH4) emissions <br>Nitrous Oxide (N2O) emissions <br>HFC emissions<br>Very Short-lived Compounds emissions<br>Other GHGs (metric tons CO2e)<br>Stationary Combustion<br>Fluorinated GHG Production
3M CORDOVA,CORDOVA,Illinois,61242,22614 ROUTE 84 NORTH,ROCK ISLAND COUNTY,41.755,-90.284167,325998,"C,L,OO","Chemicals,Industrial Gas Suppliers",657865.8974,Total reported direct emissions<br>CO2 emissions (non-biogenic) <br>Methane (CH4) emissions <br>Nitrous Oxide (N2O) emissions <br>HFC emissions<br>PFC emissions<br>SF6 emissions <br>Other Fully Fluorinated GHG emissions<br>HFE emissions<br>Very Short-lived Compounds emissions<br>Other GHGs (metric tons CO2e)<br>Stationary Combustion<br>Fluorinated GHG Production
3M Cottage Grove Center - Site,Cottage Grove,Minnesota,55016,10746 Innovation Rd,WASHINGTON COUNTY,44.789444,-92.908333,325998,"C,L,N,OO","Chemicals,Industrial Gas Suppliers,Minerals",49540.272991,Total reported direct emissions<br>CO2 emissions (non-biogenic) <br>Methane (CH4) emissions <br>Nitrous Oxide (N2O) emissions <br>HFC emissions<br>Other Fully Fluorinated GHG emissions<br>HFE emissions<br>Very Short-lived Compounds emissions<br>Other GHGs (metric tons CO2e)<br>Biogenic CO2 emissions (metric tons)<br>Stationary Combustion<br>Fluorinated GHG Production<br>Glass Production
3M INDUSTRIAL MINERAL PRODUCTS DIVISION,LITTLE ROCK,Arkansas,72206,3110 WALTERS DRIVE,PULASKI COUNTY,34.708919,-92.239492,212399,C,Other,33733.426,Total reported direct emissions<br>CO2 emissions (non-biogenic) <br>Methane (CH4) emissions <br>Nitrous Oxide (N2O) emissions <br>Stationary Combustion
3M MAGNETIC TAPE MANUFACTURING DIVISION,HUTCHINSON,Minnesota,55350,905-915 ADAMS STREET SOUTHEAST,MCLEOD COUNTY,44.879677,-94.359598,326199,C,Other,39621.3,Total reported direct emissions<br>CO2 emissions (non-biogenic) <br>Methane (CH4) emissions <br>Nitrous Oxide (N2O) emissions <br>Stationary Combustion
3M NEVADA PLANT,NEVADA,Missouri,64772,2120 E. AUSTIN,VERNON COUNTY,37.834476,-94.330625,326113,C,Other,31562.832,Total reported direct emissions<br>CO2 emissions (non-biogenic) <br>Methane (CH4) emissions <br>Nitrous Oxide (N2O) emissions <br>Stationary Combustion
3M Pittsboro,Moncure,North Carolina,27559,4191 Hwy 87 South,,35.660546,-79.176782,327999,C,Minerals,25996.852,Total reported direct emissions<br>CO2 emissions (non-biogenic) <br>Methane (CH4) emissions <br>Nitrous Oxide (N2O) emissions <br>Stationary Combustion
48th Street Peaking Station,HOLLAND,Michigan,49423,491 E 48TH ST,Allegan,42.7553,-86.0853,221112,"C,D",Power Plants,49160.668,Total reported direct emissions<br>CO2 emissions (non-biogenic) <br>Methane (CH4) emissions <br>Nitrous Oxide (N2O) emissions <br>Stationary Combustion<br>Electricity Generation
58TH ST LF (MAIN COUNTY LF),MIAMI,Florida,33178,8831 NW 58TH ST,MIAMI-DADE COUNTY,25.83301,-80.3465,562212,HH,Waste,63873.5,Total reported direct emissions<br>Methane (CH4) emissions <br>Municipal Landfills
59th Street,NEW YORK,New York,10019,850 12TH AVE,New York,40.7711,-73.9911,221330,C,Power Plants,149968.982,Total reported direct emissions<br>CO2 emissions (non-biogenic) <br>Methane (CH4) emissions <br>Nitrous Oxide (N2O) emissions <br>Stationary Combustion
69TH ST WWTP,HOUSTON,Texas,77020,2525 SSGT MACARIO GARCIA DR,HARRIS COUNTY,29.75579,-95.29791,221320,C,Other,21730.668,Total reported direct emissions<br>CO2 emissions (non-biogenic) <br>Methane (CH4) emissions <br>Nitrous Oxide (N2O) emissions <br>Stationary Combustion
74th Street,NEW YORK,New York,10021,506 E 75TH ST,New York,40.768,-73.9515,221330,C,Power Plants,174902.712,Total reported direct emissions<br>CO2 emissions (non-biogenic) <br>Methane (CH4) emissions <br>Nitrous Oxide (N2O) emissions <br>Stationary Combustion
A B Brown Generating Station,MOUNT VERNON,Indiana,47620,8511 WELBORN ROAD,Posey,37.9053,-87.715,221112,D,Power Plants,2386473.354,Total reported direct emissions<br>CO2 emissions (non-biogenic) <br>Methane (CH4) emissions <br>Nitrous Oxide (N2O) emissions <br>Electricity Generation
"A.C.M.S., Inc.",Lake Panasoffkee,Florida,33538,835 CR 529,SUMTER COUNTY,28.743151,-82.091653,562212,HH,Waste,210709.75,Total reported direct emissions<br>Methane (CH4) emissions <br>Municipal Landfills
A.J. Mihm Generating Station,Pelkie,Michigan,49958,816017 Sarya Road,,46.793722,-88.616566,221112,C,Power Plants,123398.136,Total reported direct emissions<br>CO2 emissions (non-biogenic) <br>Methane (CH4) emissions <br>Nitrous Oxide (N2O) emissions <br>Stationary Combustion
ABB Inc.,Mt. Pleasant,Pennsylvania,15666,100 Distribution Circle,WESTMORELAND COUNTY,40.17811,-79.57707,335313,SS,Other,11023.8,Total reported direct emissions<br>SF6 emissions <br>Manufacture of Electric Transmission and Distribution Equipment
ABBOTT PARK FACILITY,ABBOTT PARK,Illinois,60064,100 ABBOTT PARK RD,LAKE COUNTY,42.30227,-87.89065,424210,C,Other,55009.392,Total reported direct emissions<br>CO2 emissions (non-biogenic) <br>Methane (CH4) emissions <br>Nitrous Oxide (N2O) emissions <br>Stationary Combustion
ABBVIE LTD.,BARCELONETA,PR,617,RD 2 KM 58.0,BARCELONETA MUNICIPIO,18.433237,-66.570509,325412,C,Chemicals,64383.468,Total reported direct emissions<br>CO2 emissions (non-biogenic) <br>Methane (CH4) emissions <br>Nitrous Oxide (N2O) emissions <br>Stationary Combustion
ABC COKE,TARRANT,Alabama,35217,ONE RAILROAD AVENUE,JEFFERSON COUNTY,33.580769,-86.781281,324199,"C,Q",Metals,171414.198,Total reported direct emissions<br>CO2 emissions (non-biogenic) <br>Methane (CH4) emissions <br>Nitrous Oxide (N2O) emissions <br>Stationary Combustion<br>Iron and Steel Production
ABERDEEN ENERGY LLC,MINA,South Dakota,57451,13435 370TH AVENUE,EDMUNDS COUNTY,45.442417,-98.787139,325193,C,Other,196953.308,Total reported direct emissions<br>CO2 emissions (non-biogenic) <br>Methane (CH4) emissions <br>Nitrous Oxide (N2O) emissions <br>Stationary Combustion
ABERDEEN PROVING GROUND-Aberdeen Area & Edgewood Area,APG,Maryland,21005,4304 Susquehanna Ave,HARFORD COUNTY,39.395404,-76.30773,928110,C,Other,95765.878,Total reported direct emissions<br>CO2 emissions (non-biogenic) <br>Methane (CH4) emissions <br>Nitrous Oxide (N2O) emissions <br>Stationary Combustion
ABSOLUTE ENERGY LLC,ST ANSGAR (MONA),Iowa,50472,1372 STATELINE ROAD,MITCHELL COUNTY,43.49951,-92.91709,325193,"C,II","Other,Waste",142519.35,Total reported direct emissions<br>CO2 emissions (non-biogenic) <br>Methane (CH4) emissions <br>Nitrous Oxide (N2O) emissions <br>Biogenic CO2 emissions (metric tons)<br>Stationary Combustion<br>Industrial Wastewater Treatment
ACADIA PARISH POLICE JURY - ACADIA PARISH SANITARY LANDFILL,EGAN,Louisiana,70531,611 PETAL RD,ACADIA PARISH,30.256038,-92.532637,562111,HH,Waste,45082.5,Total reported direct emissions<br>Methane (CH4) emissions <br>Municipal Landfills
AC 857 A,Offshore,Texas,0,,,26.29555555,-94.89777777,211120,"C,W-OFFSH",Petroleum and Natural Gas Systems,195340.752,Total reported direct emissions<br>CO2 emissions (non-biogenic) <br>Methane (CH4) emissions <br>Nitrous Oxide (N2O) emissions <br>Stationary Combustion<br>Petroleum and Natural Gas Systems – Offshore Production
ACE ETHANOL LLC,STANLEY,Wisconsin,54768,815 WEST MAPLE STREET,CHIPPEWA COUNTY,44.9589,-90.9608,325193,"C,PP","Other,Suppliers of CO2",69300.84,Total reported direct emissions<br>CO2 emissions (non-biogenic) <br>Methane (CH4) emissions <br>Nitrous Oxide (N2O) emissions <br>Stationary Combustion
ACME BRICK CO ELGIN PLANT,ELGIN,Texas,78621,1776 OLD MCDADE RD,BASTROP COUNTY,30.32903,-97.29207,327120,C,Minerals,26692.3,Total reported direct emissions<br>CO2 emissions (non-biogenic) <br>Methane (CH4) emissions <br>Nitrous Oxide (N2O) emissions <br>Stationary Combustion
ACME GYPSUM FACILITY,QUANAH,Texas,79252,4164 HIGHWAY 285,HARDEMAN COUNTY,34.323944,-99.818194,327420,C,Minerals,39773.0,Total reported direct emissions<br>CO2 emissions (non-biogenic) <br>Methane (CH4) emissions <br>Nitrous Oxide (N2O) emissions <br>Stationary Combustion
ADA COGENERATION,ADA,Michigan,49355,7575 FULTON STREET EAST,KENT COUNTY,42.955455,-85.479053,221112,C,Power Plants,85831.676,Total reported direct emissions<br>CO2 emissions (non-biogenic) <br>Methane (CH4) emissions <br>Nitrous Oxide (N2O) emissions <br>Stationary Combustion
"ADA Carbon Solutions (Red River), LLC",Coushatta,Louisiana,71019,201 Red River Mine Road,RED RIVER PARISH,32.005405,-93.387829,325998,C,Chemicals,194427.156,Total reported direct emissions<br>CO2 emissions (non-biogenic) <br>Methane (CH4) emissions <br>Nitrous Oxide (N2O) emissions <br>Stationary Combustion
ADKINS ENERGY LLC,LENA,Illinois,61048,4350 WEST GALENA ROAD,STEPHENSON COUNTY,42.3586,-89.80342,325193,C,Other,86205.076,Total reported direct emissions<br>CO2 emissions (non-biogenic) <br>Methane (CH4) emissions <br>Nitrous Oxide (N2O) emissions <br>Stationary Combustion
ADM - MANKATO,MANKATO,Minnesota,56001,2019 3RD AVENUE,BLUE EARTH COUNTY,44.186805,-93.995493,311225,C,Other,139900.224,Total reported direct emissions<br>CO2 emissions (non-biogenic) <br>Methane (CH4) emissions <br>Nitrous Oxide (N2O) emissions <br>Stationary Combustion
ADM CORN PROCESSING,CEDAR RAPIDS,Iowa,52404,1350 WACONIA AVENUE SOUTHWEST,LINN COUNTY,41.9192,-91.6862,311221,"C,II","Other,Waste",2338390.15,Total reported direct emissions<br>CO2 emissions (non-biogenic) <br>Methane (CH4) emissions <br>Nitrous Oxide (N2O) emissions <br>Biogenic CO2 emissions (metric tons)<br>Stationary Combustion<br>Industrial Wastewater Treatment
ADM CORN PROCESSING,CLINTON,Iowa,52732,1251 BEAVER CHANNEL PARKWAY,CLINTON COUNTY,41.8196,-90.2122,311221,"C,TT","Other,Waste",2110774.534,Total reported direct emissions<br>CO2 emissions (non-biogenic) <br>Methane (CH4) emissions <br>Nitrous Oxide (N2O) emissions <br>Biogenic CO2 emissions (metric tons)<br>Stationary Combustion<br>Industrial Waste Landfills
ADM Deerfield,Deerfield,Missouri,64741,17700 South Highway T,VERNON COUNTY,37.80725,-94.585301,311224,C,Other,41564.844,Total reported direct emissions<br>CO2 emissions (non-biogenic) <br>Methane (CH4) emissions <br>Nitrous Oxide (N2O) emissions <br>Stationary Combustion
ADM Fostoria,Fostoria,Ohio,44830,608 FINDLAY ROAD,HANCOCK COUNTY,41.1494,-83.43295,311224,C,Other,27777.296,Total reported direct emissions<br>CO2 emissions (non-biogenic) <br>Methane (CH4) emissions <br>Nitrous Oxide (N2O) emissions <br>Stationary Combustion
ADM QUINCY,QUINCY,Illinois,62305,2100 GARDNER EXPRESSWAY,ADAMS COUNTY,39.903884,-91.410552,311224,C,Other,104084.408,Total reported direct emissions<br>CO2 emissions (non-biogenic) <br>Methane (CH4) emissions <br>Nitrous Oxide (N2O) emissions <br>Stationary Combustion
ADM SOUTHERN CELLULOSE PROD.IN,CHATTANOOGA,Tennessee,37410,103 W 45TH ST,HAMILTON COUNTY,34.997921,-85.318581,322110,C,Pulp and Paper,26863.848,Total reported direct emissions<br>CO2 emissions (non-biogenic) <br>Methane (CH4) emissions <br>Nitrous Oxide (N2O) emissions <br>Stationary Combustion
ADM SOYBEAN PROCESSING - DES MOINES,DES MOINES,Iowa,50313,1935 EAST EUCLID AVENUE,POLK COUNTY,41.626329,-93.583205,311224,C,Other,153766.68,Total reported direct emissions<br>CO2 emissions (non-biogenic) <br>Methane (CH4) emissions <br>Nitrous Oxide (N2O) emissions <br>Stationary Combustion
ADM Valdosta,Valdosta,Georgia,31601,1841 Clay Road,LOWNDES COUNTY,30.8325,-83.248056,311224,C,Other,52420.728,Total reported direct emissions<br>CO2 emissions (non-biogenic) <br>Methane (CH4) emissions <br>Nitrous Oxide (N2O) emissions <br>Biogenic CO2 emissions (metric tons)<br>Stationary Combustion
ADRIAN LANDFILL,ADRIAN,Michigan,49221,1970 N OGDEN HWY,LENAWEE COUNTY,41.890683,-83.992445,562212,HH,Waste,6576.25,Total reported direct emissions<br>Methane (CH4) emissions <br>Municipal Landfills
ADS-CEDAR HILL LANDFILL,RAGLAND,Alabama,35131,1319 NO BUSINESS CREEK ROAD,ST. CLAIR COUNTY,33.676247,-86.25444,562212,"C,HH",Waste,141324.158,Total reported direct emissions<br>Methane (CH4) emissions <br>Nitrous Oxide (N2O) emissions <br>Biogenic CO2 emissions (metric tons)<br>Stationary Combustion<br>Municipal Landfills
ADS-PECAN ROW-EVERGREEN LANDFILLS,VALDOSTA,Georgia,31601,2995 WETHERINGTON LANE,LOWNDES COUNTY,30.81425,-83.35981,562212,HH,Waste,319537.0,Total reported direct emissions<br>Methane (CH4) emissions <br>Municipal Landfills
ADS-STAR RIDGE LANDFILL,MOODY,Alabama,35004,3301 ACMAR ROAD,ST. CLAIR COUNTY,33.605845,-86.5201,562212,HH,Waste,151287.25,Total reported direct emissions<br>Methane (CH4) emissions <br>Municipal Landfills
ADS/MCLEAN COUNTY LANDFILL,BLOOMINGTON,Illinois,61704,2105 W OAKLAND AVE,MCLEAN COUNTY,40.465534,-89.03273,562212,HH,Waste,4266.75,Total reported direct emissions<br>Methane (CH4) emissions <br>Municipal Landfills
ADVANCED DISPOSAL CRANBERRY CREEK LANDFILL LLC,WISCONSIN RAPIDS,Wisconsin,54495,2510 ENGEL ROAD,WOOD COUNTY,44.4093,-89.854855,562212,"C,HH",Waste,20077.15,Total reported direct emissions<br>CO2 emissions (non-biogenic) <br>Methane (CH4) emissions <br>Stationary Combustion<br>Municipal Landfills
"ADVANCED DISPOSAL MAPLE HILL LANDFILL, LLC",MACON,Missouri,63552,31226 INTREPID ROAD,MACON COUNTY,39.73376,-92.53825,562212,"C,HH",Waste,21802.698,Total reported direct emissions<br>CO2 emissions (non-biogenic) <br>Methane (CH4) emissions <br>Nitrous Oxide (N2O) emissions <br>Stationary Combustion<br>Municipal Landfills
ADVANCED DISPOSAL OAK RIDGE LANDFILL,BALWIN,Missouri,63021,1741 SULPHUR SPRING ROAD,ST. LOUIS COUNTY,38.55775,-90.529833,562212,HH,Waste,5362.25,Total reported direct emissions<br>Methane (CH4) emissions <br>Municipal Landfills
ADVANCED DISPOSAL ORCHARD HILLS LANDFILL INC,DAVIS JUNCTION,Illinois,61020,8290 HIGHWAY 251,OGLE COUNTY,42.14,-89.085,562212,"C,HH",Waste,192679.1,Total reported direct emissions<br>CO2 emissions (non-biogenic) <br>Methane (CH4) emissions <br>Stationary Combustion<br>Municipal Landfills
ADVANCED DISPOSAL VALLEY VIEW LANDFILL INC,DECATUR,Illinois,62522,1363 BEAR RD,MACON COUNTY,39.822266,-89.043754,562212,"C,HH",Waste,33001.6,Total reported direct emissions<br>CO2 emissions (non-biogenic) <br>Methane (CH4) emissions <br>Stationary Combustion<br>Municipal Landfills
ADVANSIX INC - CHESTERFIELD PLANT,CHESTER,Virginia,23836,4101 BERMUDA HUNDRED RD,CHESTERFIELD COUNTY,37.33963,-77.2884,325211,C,Other,57749.83,Total reported direct emissions<br>CO2 emissions (non-biogenic) <br>Methane (CH4) emissions <br>Nitrous Oxide (N2O) emissions <br>Stationary Combustion
ADVANSIX INCORPORATED - HOPEWELL,HOPEWELL,Virginia,23860,905 EAST RANDOLPH ROAD,HOPEWELL CITY,37.1815,-77.1621,325199,"C,G,PP","Chemicals,Suppliers of CO2",1181515.788,Total reported direct emissions<br>CO2 emissions (non-biogenic) <br>Methane (CH4) emissions <br>Nitrous Oxide (N2O) emissions <br>Stationary Combustion<br>Ammonia Manufacturing
AES - PUERTO RICO COGENERATION PLANT,GUAYAMA,PR,785,"KM 142, RTE. #3 BO. JOBOS",GUAYAMA MUNICIPIO,17.9451,-66.1503,221112,C,Power Plants,3431800.86,Total reported direct emissions<br>CO2 emissions (non-biogenic) <br>Methane (CH4) emissions <br>Nitrous Oxide (N2O) emissions <br>Stationary Combustion
AES Alamitos,LONG BEACH,California,90803,690 N STUDEBAKER ROAD,Los Angeles,33.7688,-118.1009,221112,"C,D",Power Plants,823899.996,Total reported direct emissions<br>CO2 emissions (non-biogenic) <br>Methane (CH4) emissions <br>Nitrous Oxide (N2O) emissions <br>Stationary Combustion<br>Electricity Generation
AES HAWAII INC,KAPOLEI,Hawaii,96707,91-086 KAOMI LP,HONOLULU COUNTY,21.301222,-158.107306,221112,C,Power Plants,1186453.736,Total reported direct emissions<br>CO2 emissions (non-biogenic) <br>Methane (CH4) emissions <br>Nitrous Oxide (N2O) emissions <br>Stationary Combustion
AES Huntington Beach,HUNTINGTON BEACH,California,92646,21730 NEWLAND ST,Orange,33.6436,-117.9788,221112,"C,D",Power Plants,516763.936,Total reported direct emissions<br>CO2 emissions (non-biogenic) <br>Methane (CH4) emissions <br>Nitrous Oxide (N2O) emissions <br>Stationary Combustion<br>Electricity Generation
AES Redondo Beach,REDONDO BEACH,California,90277,1100 N HARBOR DRIVE,Los Angeles,33.8504,-118.395,221112,D,Power Plants,239844.36,Total reported direct emissions<br>CO2 emissions (non-biogenic) <br>Methane (CH4) emissions <br>Nitrous Oxide (N2O) emissions <br>Electricity Generation
AES Warrior Run,CUMBERLAND,Maryland,21502,11600 MEXICO FARMS RD SE,Allegany,39.5944,-78.7456,221112,"C,D,PP","Power Plants,Suppliers of CO2",1117382.992,Total reported direct emissions<br>CO2 emissions (non-biogenic) <br>Methane (CH4) emissions <br>Nitrous Oxide (N2O) emissions <br>Stationary Combustion<br>Electricity Generation
AFTON CHEMICAL CORP,SAUGET,Illinois,62201,501 MONSANTO AVE.,ST. CLAIR COUNTY,38.602631,-90.167496,324191,C,Petroleum and Natural Gas Systems,50044.16,Total reported direct emissions<br>CO2 emissions (non-biogenic) <br>Methane (CH4) emissions <br>Nitrous Oxide (N2O) emissions <br>Stationary Combustion
AG Energy,Ogdensburg,New York,13669,21 Entrance Avenue,ST. LAWRENCE COUNTY,44.7258,-75.4417,221112,"C,D",Power Plants,7329.672,Total reported direct emissions<br>CO2 emissions (non-biogenic) <br>Methane (CH4) emissions <br>Nitrous Oxide (N2O) emissions <br>Stationary Combustion<br>Electricity Generation
AG PROCESSING INC,EMMETSBURG,Iowa,50536,4739 380TH ST,PALO ALTO COUNTY,43.09748,-94.65182,311224,C,Other,25396.004,Total reported direct emissions<br>CO2 emissions (non-biogenic) <br>Methane (CH4) emissions <br>Nitrous Oxide (N2O) emissions <br>Stationary Combustion
AG PROCESSING INC A COOP-MANNING,MANNING,Iowa,51455,1000 300TH STREET,CARROLL COUNTY,41.920794,-95.070791,311224,C,Other,20570.772,Total reported direct emissions<br>CO2 emissions (non-biogenic) <br>Methane (CH4) emissions <br>Nitrous Oxide (N2O) emissions <br>Stationary Combustion
AG PROCESSING INC-EAGLE GROVE,EAGLE GROVE,Iowa,50533,500 NORTH COMMERCIAL AVENUE,WRIGHT COUNTY,42.669167,-93.904444,311224,C,Other,66086.452,Total reported direct emissions<br>CO2 emissions (non-biogenic) <br>Methane (CH4) emissions <br>Nitrous Oxide (N2O) emissions <br>Stationary Combustion
AG PROCESSING INC-SHELDON,SHELDON,Iowa,51201,804 2ND AVE,O'BRIEN COUNTY,43.182248,-95.856177,311224,C,Other,27849.396,Total reported direct emissions<br>CO2 emissions (non-biogenic) <br>Methane (CH4) emissions <br>Nitrous Oxide (N2O) emissions <br>Stationary Combustion
AG PROCESSING INCORPORATED A COOPERATIVE,DAWSON,Minnesota,56232,800 DIAGONAL STREET,LAC QUI PARLE COUNTY,44.93265,-96.056491,311224,C,Other,38906.004,Total reported direct emissions<br>CO2 emissions (non-biogenic) <br>Methane (CH4) emissions <br>Nitrous Oxide (N2O) emissions <br>Stationary Combustion
AGC FLAT GLASS N AMERICA INC,RICHMOND,Kentucky,40475,201 DUNCANNON LANE,MADISON COUNTY,37.70034,-84.26929,327211,"C,N",Minerals,77596.454,Total reported direct emissions<br>CO2 emissions (non-biogenic) <br>Methane (CH4) emissions <br>Nitrous Oxide (N2O) emissions <br>Stationary Combustion<br>Glass Production
AGC FLAT GLASS NORTH AMERICA SPRING HILL PLANT,SPRING HILL,Kansas,66083,20400 NORTH WEBSTER STREET,JOHNSON COUNTY,38.759188,-94.825252,327211,"C,N",Minerals,101902.568,Total reported direct emissions<br>CO2 emissions (non-biogenic) <br>Methane (CH4) emissions <br>Nitrous Oxide (N2O) emissions <br>Stationary Combustion<br>Glass Production
AGC-GREENLAND FLATGLASS PLANT,CHURCH HILL,Tennessee,37642,600 AFG ROAD,HAWKINS COUNTY,36.497,-82.77946,327211,"C,N",Minerals,117946.716,Total reported direct emissions<br>CO2 emissions (non-biogenic) <br>Methane (CH4) emissions <br>Nitrous Oxide (N2O) emissions <br>Stationary Combustion<br>Glass Production
AGP SOY/CORN PROCESSING,HASTINGS,Nebraska,68901,2801 E 7TH ST,ADAMS COUNTY,40.59227,-98.3391,311224,C,Other,184240.124,Total reported direct emissions<br>CO2 emissions (non-biogenic) <br>Methane (CH4) emissions <br>Nitrous Oxide (N2O) emissions <br>Stationary Combustion
AGRI ENERGY LLC,LUVERNE,Minnesota,56156,502 SOUTH WALNUT AVENUE,ROCK COUNTY,43.648333,-96.224444,325199,"C,II","Chemicals,Waste",5563.08,Total reported direct emissions<br>CO2 emissions (non-biogenic) <br>Methane (CH4) emissions <br>Nitrous Oxide (N2O) emissions <br>Stationary Combustion<br>Industrial Wastewater Treatment
AGRIUM US BORGER NITROGEN OPERATIONS,BORGER,Texas,79007,9201 FM 1551,HUTCHINSON COUNTY,35.6417,-101.4228,325311,"C,G,PP","Chemicals,Suppliers of CO2",955607.872,Total reported direct emissions<br>CO2 emissions (non-biogenic) <br>Methane (CH4) emissions <br>Nitrous Oxide (N2O) emissions <br>Stationary Combustion<br>Ammonia Manufacturing
AGRIUM US INC - KFO,KENNEWICK,Washington,99337,227515 E BOWLES ROAD,BENTON COUNTY,46.165957,-119.017218,325311,"C,U,V",Chemicals,145127.444,Total reported direct emissions<br>CO2 emissions (non-biogenic) <br>Methane (CH4) emissions <br>Nitrous Oxide (N2O) emissions <br>Stationary Combustion<br>Miscellaneous Use of Carbonates<br>Nitric Acid Production
AHN Heartland Ingredients,EDDYVILLE,Iowa,52553,1116 Highway 137,MONROE COUNTY,41.143573,-92.647934,311119,C,Other,111912.628,Total reported direct emissions<br>CO2 emissions (non-biogenic) <br>Methane (CH4) emissions <br>Nitrous Oxide (N2O) emissions <br>Stationary Combustion
"AIR LIQUID LARGE INDUSTRIES US, LP",EL SEGUNDO,California,90245,324 W EL SEGUNDO BLVD,LOS ANGELES COUNTY,33.905833,-118.401944,325120,P,Chemicals,556606.1,Total reported direct emissions<br>CO2 emissions (non-biogenic) <br>Hydrogen Production
AIR LIQUIDE - CORPUS CHRISTI SMR,CORPUS CHRISTI,Texas,78407,5880 UP RIVER ROAD,NUECES COUNTY,27.813911,-97.472347,325120,P,Chemicals,367763.2,Total reported direct emissions<br>CO2 emissions (non-biogenic) <br>Hydrogen Production
AIR LIQUIDE - FREEPORT HYCO PLANT,FREEPORT,Texas,77541,2398 VICTORIA ROAD,BRAZORIA COUNTY,28.98037,-95.38396,325120,"C,P",Chemicals,203358.2,Total reported direct emissions<br>CO2 emissions (non-biogenic) <br>Stationary Combustion<br>Hydrogen Production
AIR LIQUIDE - PORT NECHES ASU COGENERATION PLANT,PORT NECHES,Texas,77651,2121 PARK STREET,JEFFERSON COUNTY,29.981116,-93.952389,325120,C,Chemicals,4217.184,Total reported direct emissions<br>CO2 emissions (non-biogenic) <br>Methane (CH4) emissions <br>Nitrous Oxide (N2O) emissions <br>Stationary Combustion
AIR LIQUIDE AMERICA CORP,LONGVIEW,Texas,75602,2292 Callahan Rd,HARRISON COUNTY,32.4478,-94.6875,325120,P,Chemicals,398199.2,Total reported direct emissions<br>CO2 emissions (non-biogenic) <br>Hydrogen Production
AIR LIQUIDE AMERICA CORP.,GEISMAR,Louisiana,70734,36597 HWY 30,ASCENSION PARISH,30.21023,-90.99085,325120,C,Chemicals,349268.836,Total reported direct emissions<br>CO2 emissions (non-biogenic) <br>Methane (CH4) emissions <br>Nitrous Oxide (N2O) emissions <br>Stationary Combustion
AIR LIQUIDE GEISMAR UTILITY SERVICES,GEISMAR,Louisiana,70734,36183 HWY 30,ASCENSION PARISH,30.21023,-90.99085,221330,C,Power Plants,113676.428,Total reported direct emissions<br>CO2 emissions (non-biogenic) <br>Methane (CH4) emissions <br>Nitrous Oxide (N2O) emissions <br>Biogenic CO2 emissions (metric tons)<br>Stationary Combustion
AIR LIQUIDE LARGE INDUSTRIES US LP - RODEO HYDROGEN PLANT,RODEO,California,94572,1391 SAN PABLO AVE,CONTRA COSTA COUNTY,38.047952,-122.256895,325120,P,Chemicals,881232.4,Total reported direct emissions<br>CO2 emissions (non-biogenic) <br>Hydrogen Production
AIR PRODUCTS & CHEMICAL INC - LAKE CHARLES FACILITY,WESTLAKE,Louisiana,70669,102 TROUSDALE RD,CALCASIEU PARISH,30.238889,-93.281944,325120,P,Chemicals,642856.6,Total reported direct emissions<br>CO2 emissions (non-biogenic) <br>Hydrogen Production
AIR PRODUCTS & CHEMICALS INC - CONVENT SMR,CONVENT,Louisiana,70723,10759 CONVENT WAY,ST. JAMES PARISH,30.10817,-90.88404,325120,P,Chemicals,569828.4,Total reported direct emissions<br>CO2 emissions (non-biogenic) <br>Hydrogen Production
AIR PRODUCTS & CHEMICALS INC - Geismar SMR,GEISMAR,Louisiana,70734,8013 HWY 3251,ASCENSION PARISH,30.183808,-90.9876,325120,"P,PP","Chemicals,Suppliers of CO2",56325.0,Total reported direct emissions<br>CO2 emissions (non-biogenic) <br>Hydrogen Production
AIR PRODUCTS & CHEMICALS INC - INDUSTRIAL GAS PRODUCTION FACILITY,NEW ORLEANS,Louisiana,70129,14700 INTRACOASTAL DRIVE,ORLEANS PARISH,30.028333,-89.901111,325120,"C,P",Chemicals,199762.0,Total reported direct emissions<br>CO2 emissions (non-biogenic) <br>Stationary Combustion<br>Hydrogen Production
AIR PRODUCTS & CHEMICALS INC MARTINEZ WATERFRONT ROAD,MARTINEZ,California,94553,110 WATERFRONT RD,CONTRA COSTA COUNTY,38.032767,-122.07594,325120,P,Chemicals,526494.9,Total reported direct emissions<br>CO2 emissions (non-biogenic) <br>Hydrogen Production
AJAX PLANT,Wheeler,Texas,79014,16600 CR N,WHEELER COUNTY,35.546399,-100.116256,211130,"C,W-PROC",Petroleum and Natural Gas Systems,32709.48,Total reported direct emissions<br>CO2 emissions (non-biogenic) <br>Methane (CH4) emissions <br>Nitrous Oxide (N2O) emissions <br>Stationary Combustion<br>Petroleum and Natural Gas Systems – Processing
"AIR PRODUCTS & CHEMICALS, INC, Tesoro Martinez",MARTINEZ,California,94553,,CONTRA COSTA COUNTY,38.026667,-122.067222,325120,P,Chemicals,87288.672,Total reported direct emissions<br>CO2 emissions (non-biogenic) <br>Methane (CH4) emissions <br>Nitrous Oxide (N2O) emissions <br>Hydrogen Production
AIR PRODUCTS AND CHEMICALS INC - CATLETTSBURG HYDROGEN PLANT,CATLETTSBURG,Kentucky,41129,11631 US Route 23 ,BOYD COUNTY,38.384444,-82.598528,325120,P,Chemicals,123064.7,Total reported direct emissions<br>CO2 emissions (non-biogenic) <br>Hydrogen Production
AKER PLANT,STREETMAN,Texas,75859,261 FCR 181,FREESTONE COUNTY,31.90806,-96.227219,211130,"C,PP,W-PROC","Petroleum and Natural Gas Systems,Suppliers of CO2",36973.562,Total reported direct emissions<br>CO2 emissions (non-biogenic) <br>Methane (CH4) emissions <br>Nitrous Oxide (N2O) emissions <br>Stationary Combustion<br>Petroleum and Natural Gas Systems – Processing
AIR PRODUCTS AND CHEMICALS INC - GARYVILLE,GARYVILLE,Louisiana,70051,4663 W AIRLINE HWY ,ST. JOHN THE BAPTIST PARISH,30.06273,-90.58819,325120,P,Chemicals,790406.7,Total reported direct emissions<br>CO2 emissions (non-biogenic) <br>Hydrogen Production
AIR PRODUCTS AND CHEMICALS INCORPORATED,SACRAMENTO,California,95826,5025 83RD STREET,SACRAMENTO COUNTY,38.529722,-121.398889,325120,P,Chemicals,48575.2,Total reported direct emissions<br>CO2 emissions (non-biogenic) <br>Hydrogen Production
AIR PRODUCTS BAYTOWN PLANT,BAYTOWN,Texas,77520,5503 WEST BAKER ROAD,HARRIS COUNTY,29.757778,-95.023056,325120,C,Chemicals,109271.936,Total reported direct emissions<br>CO2 emissions (non-biogenic) <br>Methane (CH4) emissions <br>Nitrous Oxide (N2O) emissions <br>Stationary Combustion
AIR PRODUCTS CARSON HYDROGEN PLANT,CARSON,California,90810,23300 SOUTH ALAMEDA STREET,LOS ANGELES COUNTY,33.812778,-118.231389,325120,P,Chemicals,507837.8,Total reported direct emissions<br>CO2 emissions (non-biogenic) <br>Hydrogen Production
AIR PRODUCTS WILMINGTON HYDROGEN PLANT,WILMINGTON,California,90744,700 HENRY FORD AVENUE,LOS ANGELES COUNTY,33.780833,-118.241111,325120,P,Chemicals,705789.35,Total reported direct emissions<br>CO2 emissions (non-biogenic) <br>Methane (CH4) emissions <br>Nitrous Oxide (N2O) emissions <br>Hydrogen Production
AK Steel Corporation - Middletown,MIDDLETOWN,Ohio,45043,1801 CRAWFORD STREET,Butler,39.4968,-84.3901,331110,"C,Q",Metals,4069594.746,Total reported direct emissions<br>CO2 emissions (non-biogenic) <br>Methane (CH4) emissions <br>Nitrous Oxide (N2O) emissions <br>Stationary Combustion<br>Iron and Steel Production
AKRON REGIONAL LANDFILL *,AKRON,Ohio,44313,1585 HARDY ROAD,SUMMIT COUNTY,41.151282,-81.559298,562212,HH,Waste,3682.25,Total reported direct emissions<br>Methane (CH4) emissions <br>Municipal Landfills
AL CORN CLEAN FUEL,CLAREMONT,Minnesota,55924,797 5th Street,DODGE COUNTY,44.049412,-93.017379,325193,C,Other,162045.388,Total reported direct emissions<br>CO2 emissions (non-biogenic) <br>Methane (CH4) emissions <br>Nitrous Oxide (N2O) emissions <br>Stationary Combustion
AL Sandersville,WARTHEN,Georgia,31094,1600 MILLS LINDSEY SCHOOL ROAD,Washington,33.1189,-82.8608,221112,D,Power Plants,23939.208,Total reported direct emissions<br>CO2 emissions (non-biogenic) <br>Methane (CH4) emissions <br>Nitrous Oxide (N2O) emissions <br>Electricity Generation
"ALABAMA RIVER CELLULOSE, LLC",PERDUE HILL,Alabama,36470,2373 LENA LANDEGGER HWY,MONROE COUNTY,31.580112,-87.490073,322110,"AA,C,TT","Pulp and Paper,Waste",314977.706,Total reported direct emissions<br>CO2 emissions (non-biogenic) <br>Methane (CH4) emissions <br>Nitrous Oxide (N2O) emissions <br>Biogenic CO2 emissions (metric tons)<br>Stationary Combustion<br>Pulp and Paper Manufacturing<br>Industrial Waste Landfills
ALADDIN MILLS - ANTIOCH RD PLA NT,DALTON,Georgia,30720,2001 ANTIOCH ROAD,WHITFIELD COUNTY,34.73399,-84.94646,314110,C,Other,45423.68,Total reported direct emissions<br>CO2 emissions (non-biogenic) <br>Methane (CH4) emissions <br>Nitrous Oxide (N2O) emissions <br>Stationary Combustion
ALBANY LANDFILL,ALBANY,New York,12205,525 RAPP RD,ALBANY COUNTY,42.70324,-73.84958,562212,HH,Waste,67261.5,Total reported direct emissions<br>Methane (CH4) emissions <br>Municipal Landfills
ALBEMARLE CORPORATION HOUSTON PLANT,PASADENA,Texas,77503,2500 N. SOUTH ST.,HARRIS COUNTY,29.742498,-95.165513,325199,C,Chemicals,46683.212,Total reported direct emissions<br>CO2 emissions (non-biogenic) <br>Methane (CH4) emissions <br>Nitrous Oxide (N2O) emissions <br>Stationary Combustion
ALBEMARLE CORPORATION-SOUTH PLANT,MAGNOLIA,Arkansas,71753,2270 HWY 79 SOUTH OF MAGNOLIA,COLUMBIA COUNTY,33.1756,-93.2169,325180,C,Chemicals,80774.496,Total reported direct emissions<br>CO2 emissions (non-biogenic) <br>Methane (CH4) emissions <br>Nitrous Oxide (N2O) emissions <br>Stationary Combustion
ALCOA INC - WARRICK OPERATIONS,NEWBURGH,Indiana,47629,,WARRICK COUNTY,37.915,-87.3328,331313,"C,D,F","Metals,Power Plants",5963440.226,Total reported direct emissions<br>CO2 emissions (non-biogenic) <br>Methane (CH4) emissions <br>Nitrous Oxide (N2O) emissions <br>PFC emissions<br>Stationary Combustion<br>Electricity Generation<br>Aluminum Production
ALCOA INTALCO WORKS,FERNDALE,Washington,98248,4050 MOUNTAIN VIEW RD.,WHATCOM COUNTY,48.8455,-122.7055,331313,"C,F,TT","Metals,Waste",595364.455,Total reported direct emissions<br>CO2 emissions (non-biogenic) <br>Methane (CH4) emissions <br>Nitrous Oxide (N2O) emissions <br>PFC emissions<br>Stationary Combustion<br>Aluminum Production<br>Industrial Waste Landfills
ALCOA WORLD ALUMINA ATLANTIC,POINT COMFORT,Texas,77978,,CALHOUN COUNTY,28.65083,-96.56222,331313,"C,TT","Metals,Waste",14102.448,Total reported direct emissions<br>CO2 emissions (non-biogenic) <br>Methane (CH4) emissions <br>Nitrous Oxide (N2O) emissions <br>Stationary Combustion<br>Industrial Waste Landfills
ALCOA-MARYVILLE-BLOUNT COUNTY LANDFILL,Friendsville,Tennessee,37737,240 Long Powers Road,BLOUNT COUNTY,35.73834,-84.05978,562212,HH,Waste,68070.5,Total reported direct emissions<br>Methane (CH4) emissions <br>Municipal Landfills
ALLIANCE COMPRESSOR STATION,JUSTIN,Texas,76247,12495 HWY 114,DENTON COUNTY,33.03425,-97.34692,211130,"C,W-PROC",Petroleum and Natural Gas Systems,43989.846,Total reported direct emissions<br>CO2 emissions (non-biogenic) <br>Methane (CH4) emissions <br>Nitrous Oxide (N2O) emissions <br>Stationary Combustion<br>Petroleum and Natural Gas Systems – Processing
ALERIS ROLLED PRODUCTS INC,LEWISPORT,Kentucky,42351,1372 STATE ROAD 1957,HANCOCK COUNTY,37.950831,-86.845794,331314,C,Metals,156516.76,Total reported direct emissions<br>CO2 emissions (non-biogenic) <br>Methane (CH4) emissions <br>Nitrous Oxide (N2O) emissions <br>Stationary Combustion
ALL PURPOSE LANDFILL,SANTA CLARA,California,95050,5401 Lafayette Street,SANTA CLARA COUNTY,37.4135,-121.9724,562212,HH,Waste,43657.25,Total reported direct emissions<br>Methane (CH4) emissions <br>Municipal Landfills
ALLEGANY BALLISTICS LABORATORY,KEYSER,West Virginia,26726,210 STATE ROUTE 956,MINERAL COUNTY,39.560972,-78.843611,336415,C,Other,26484.0,Total reported direct emissions<br>CO2 emissions (non-biogenic) <br>Methane (CH4) emissions <br>Nitrous Oxide (N2O) emissions <br>Stationary Combustion
ALLEN COUNTY PUBLIC WORKS,LA HARPE,Kansas,66751,1170 2800TH ST,ALLEN COUNTY,38.007907,-95.289343,562212,"C,HH",Waste,68215.896,Total reported direct emissions<br>CO2 emissions (non-biogenic) <br>Methane (CH4) emissions <br>Nitrous Oxide (N2O) emissions <br>Biogenic CO2 emissions (metric tons)<br>Stationary Combustion<br>Municipal Landfills
ALLIANCE SANI LDFL,TAYLOR,Pennsylvania,18517,398 KEYSER AVENUE,LACKAWANNA COUNTY,41.3965,-75.7375,562212,"C,HH",Waste,60734.548,Total reported direct emissions<br>CO2 emissions (non-biogenic) <br>Methane (CH4) emissions <br>Nitrous Oxide (N2O) emissions <br>Stationary Combustion<br>Municipal Landfills
ALLIED IMPERIAL LANDFILL,IMPERIAL,California,92251,104 EAST ROBINSON ROAD,IMPERIAL COUNTY,32.85467,-115.52505,562212,HH,Waste,15021.5,Total reported direct emissions<br>Methane (CH4) emissions <br>Municipal Landfills
ALLISON GAS PLANT,Allison,Texas,79003,16298 Co. Rd. EE,WHEELER COUNTY,35.618663,-100.14948,211130,"C,W-PROC",Petroleum and Natural Gas Systems,41699.848,Total reported direct emissions<br>CO2 emissions (non-biogenic) <br>Methane (CH4) emissions <br>Nitrous Oxide (N2O) emissions <br>Stationary Combustion<br>Petroleum and Natural Gas Systems – Processing
"ALLISON TRANSMISSION, Inc.",INDIANAPOLIS,Indiana,46222,One Allison Way,MARION COUNTY,39.78039,-86.238893,336350,C,Other,22579.148,Total reported direct emissions<br>CO2 emissions (non-biogenic) <br>Methane (CH4) emissions <br>Nitrous Oxide (N2O) emissions <br>Stationary Combustion
ALMATIS INC - BAUXITE ARKANSAS,Benton,Arkansas,72015,4701 ALCOA ROAD,SALINE COUNTY,34.57522,-92.53173,331313,C,Metals,48298.968,Total reported direct emissions<br>CO2 emissions (non-biogenic) <br>Methane (CH4) emissions <br>Nitrous Oxide (N2O) emissions <br>Stationary Combustion
ALON REFINING KROTZ SPRINGS INC,KROTZ SPRINGS,Louisiana,70750,356 S. LEVEE RD,ST. LANDRY PARISH,30.526504,-91.748383,324110,"C,MM-REF,Y","Petroleum Product Suppliers,Refineries",354930.17,Total reported direct emissions<br>CO2 emissions (non-biogenic) <br>Methane (CH4) emissions <br>Nitrous Oxide (N2O) emissions <br>Stationary Combustion<br>Petroleum Refining
ALLIANCE PIPELINE - OLIVIA 23-A,BIRD ISLAND,Minnesota,55310,38884 870TH AVE,RENVILLE COUNTY,44.8491,-94.8969,486210,"C,W-NGTC",Petroleum and Natural Gas Systems,65609.304,Total reported direct emissions<br>CO2 emissions (non-biogenic) <br>Methane (CH4) emissions <br>Nitrous Oxide (N2O) emissions <br>Stationary Combustion<br>Petroleum and Natural Gas Systems – Transmission/Compression
ALPHA RIDGE LANDFILL,MARRIOTTSVILLE,Maryland,21104,2350 MARRIOTTSVILLE ROAD,HOWARD COUNTY,39.30718,-76.89862,562212,"C,HH",Waste,16106.03,Total reported direct emissions<br>CO2 emissions (non-biogenic) <br>Methane (CH4) emissions <br>Nitrous Oxide (N2O) emissions <br>Biogenic CO2 emissions (metric tons)<br>Stationary Combustion<br>Municipal Landfills
ALLIANCE PIPELINE L.P. - MANCHESTER,MANCHESTER,Iowa,52057,1242 220TH STREET,DELAWARE COUNTY,42.4671,-91.5509,486210,"C,W-NGTC",Petroleum and Natural Gas Systems,77053.26,Total reported direct emissions<br>CO2 emissions (non-biogenic) <br>Methane (CH4) emissions <br>Nitrous Oxide (N2O) emissions <br>Stationary Combustion<br>Petroleum and Natural Gas Systems – Transmission/Compression
ALTIVIA Institute Facilities,Dunbar,West Virginia,25064,250 Carbide Rd,KANAWHA COUNTY,38.384384,-81.776095,325194,C,Chemicals,79411.752,Total reported direct emissions<br>CO2 emissions (non-biogenic) <br>Methane (CH4) emissions <br>Nitrous Oxide (N2O) emissions <br>Stationary Combustion
ALLIANCE PIPELINE LP,TAMPICO,Illinois,61283,580 TAMPICO RD,WHITESIDE COUNTY,41.592546,-89.784245,486210,"C,W-NGTC",Petroleum and Natural Gas Systems,54224.446,Total reported direct emissions<br>CO2 emissions (non-biogenic) <br>Methane (CH4) emissions <br>Nitrous Oxide (N2O) emissions <br>Stationary Combustion<br>Petroleum and Natural Gas Systems – Transmission/Compression
"ALTIVIA Petrochemicals, LLC - HAVERHILL COMPLEX",HAVERHILL,Ohio,45636,1019 HAVERHILL OHIO FURNACE ROAD,SCIOTO COUNTY,38.59167,-82.81944,325194,C,Chemicals,48314.968,Total reported direct emissions<br>CO2 emissions (non-biogenic) <br>Methane (CH4) emissions <br>Nitrous Oxide (N2O) emissions <br>Stationary Combustion
"ALLIANCE PIPELINE, L.P.-FAIRMOUNT COMPRESSOR STATION",FAIRMOUNT,North Dakota,58030,17950 98TH ST SE,RICHLAND COUNTY,45.993367,-96.648999,486210,"C,W-NGTC",Petroleum and Natural Gas Systems,81961.292,Total reported direct emissions<br>CO2 emissions (non-biogenic) <br>Methane (CH4) emissions <br>Nitrous Oxide (N2O) emissions <br>Stationary Combustion<br>Petroleum and Natural Gas Systems – Transmission/Compression
ALTO COLUMBIA LLC,BOARDMAN,Oregon,97818,71335 RAIL LOOP DRIVE,MORROW COUNTY,45.855921,-119.656083,325193,"C,PP","Other,Suppliers of CO2",35520.616,Total reported direct emissions<br>CO2 emissions (non-biogenic) <br>Methane (CH4) emissions <br>Nitrous Oxide (N2O) emissions <br>Stationary Combustion
"ALLIANCE PIPELINE, L.P.-WIMBLEDON COMPRESSOR STATION",WIMBLEDON,North Dakota,58492,1540 98TH AVE SE,BARNES COUNTY,47.191058,-98.42561,486210,"C,W-NGTC",Petroleum and Natural Gas Systems,53155.45,Total reported direct emissions<br>CO2 emissions (non-biogenic) <br>Methane (CH4) emissions <br>Nitrous Oxide (N2O) emissions <br>Stationary Combustion<br>Petroleum and Natural Gas Systems – Transmission/Compression
ALTO MAGIC VALLEY LLC,BURLEY,Idaho,83318,2600 WASHINGTON AVENUE,CASSIA COUNTY,42.521324,-113.815693,325193,C,Other,15623.092,Total reported direct emissions<br>CO2 emissions (non-biogenic) <br>Methane (CH4) emissions <br>Nitrous Oxide (N2O) emissions <br>Stationary Combustion
ALTON STEEL COMPANY,ALTON,Illinois,62002,#5 CUT ST.,MADISON COUNTY,38.88321,-90.14503,331110,"C,Q",Metals,30371.288,Total reported direct emissions<br>CO2 emissions (non-biogenic) <br>Methane (CH4) emissions <br>Nitrous Oxide (N2O) emissions <br>Stationary Combustion<br>Iron and Steel Production
ALYESKA PIPELINE SE/TAPS PUMP STATION 01,PRUDHOE BAY,Alaska,99734,,NORTH SLOPE BOROUGH,70.257222,-148.617778,486110,C,Other,63920.46,Total reported direct emissions<br>CO2 emissions (non-biogenic) <br>Methane (CH4) emissions <br>Nitrous Oxide (N2O) emissions <br>Stationary Combustion
"ALYESKA PIPELINE SERVICE COMPANY, Valdez Marine Terminal",VALDEZ,Alaska,99686,300 DAYVILLE ROAD,VALDEZ-CORDOVA CENSUS AREA,61.084857,-146.388531,486110,C,Other,26580.02,Total reported direct emissions<br>CO2 emissions (non-biogenic) <br>Methane (CH4) emissions <br>Nitrous Oxide (N2O) emissions <br>Stationary Combustion
"AM/NS Calvert, LLC",CALVERT,Alabama,36513,1 AM/NS Way,MOBILE COUNTY,30.8,-88.1,331110,C,Metals,467304.04,Total reported direct emissions<br>CO2 emissions (non-biogenic) <br>Methane (CH4) emissions <br>Nitrous Oxide (N2O) emissions <br>Stationary Combustion
AMALGAMATED SUGAR CO LLC,PAUL,Idaho,83347,50 SOUTH 500 WEST,MINIDOKA COUNTY,42.611671,-113.757423,311313,"C,S,TT","Minerals,Waste",285996.076,Total reported direct emissions<br>CO2 emissions (non-biogenic) <br>Methane (CH4) emissions <br>Nitrous Oxide (N2O) emissions <br>Stationary Combustion<br>Lime Production<br>Industrial Waste Landfills
AMALGAMATED SUGAR CO LLC,TWIN FALLS,Idaho,83301,2320 ORCHARD DR. E.,TWIN FALLS COUNTY,42.531995,-114.431448,311313,"C,S",Minerals,252307.822,Total reported direct emissions<br>CO2 emissions (non-biogenic) <br>Methane (CH4) emissions <br>Nitrous Oxide (N2O) emissions <br>Stationary Combustion<br>Lime Production
AMALGAMATED SUGAR CO LLC,NAMPA,Idaho,83687,138 WEST KARCHER ROAD,CANYON COUNTY,43.612136,-116.579232,311313,"C,S,TT","Minerals,Waste",349799.658,Total reported direct emissions<br>CO2 emissions (non-biogenic) <br>Methane (CH4) emissions <br>Nitrous Oxide (N2O) emissions <br>Stationary Combustion<br>Lime Production<br>Industrial Waste Landfills
AMEA Sylacauga Plant,SYLACAUGA,Alabama,35150,125 THOMPSON LANE,Talladega,33.1661,-86.2825,221112,D,Power Plants,22422.116,Total reported direct emissions<br>CO2 emissions (non-biogenic) <br>Methane (CH4) emissions <br>Nitrous Oxide (N2O) emissions <br>Electricity Generation
AMERICAN ACRYL PASADENA,PASADENA,Texas,77507,"4631 Old Hwy 146, Suite B",HARRIS COUNTY,29.62132,-95.06676,325199,C,Chemicals,83200.736,Total reported direct emissions<br>CO2 emissions (non-biogenic) <br>Methane (CH4) emissions <br>Nitrous Oxide (N2O) emissions <br>Stationary Combustion
AMERICAN AIRLINES,TULSA,Oklahoma,74116,3800 NORTH MINGO ROAD,TULSA COUNTY,36.204822,-95.868808,481111,C,Other,40397.118,Total reported direct emissions<br>CO2 emissions (non-biogenic) <br>Methane (CH4) emissions <br>Nitrous Oxide (N2O) emissions <br>Stationary Combustion
AMERICAN AVENUE LANDFILL,KERMAN,California,93630,18950 W AMERICAN AVENUE,FRESNO COUNTY,36.6659,-120.1382,562212,"C,HH",Waste,129155.5,Total reported direct emissions<br>CO2 emissions (non-biogenic) <br>Methane (CH4) emissions <br>Stationary Combustion<br>Municipal Landfills
AMERICAN CAST IRON PIPE CO,BIRMINGHAM,Alabama,35207,2930 NORTH 16TH STREET,JEFFERSON COUNTY,33.54698,-86.83465,331511,C,Metals,147810.112,Total reported direct emissions<br>CO2 emissions (non-biogenic) <br>Methane (CH4) emissions <br>Nitrous Oxide (N2O) emissions <br>Stationary Combustion
AMERICAN COLLOID,Colony,Wyoming,82710,,BUTTE COUNTY,44.86636,-104.1513,212325,C,Other,52817.392,Total reported direct emissions<br>CO2 emissions (non-biogenic) <br>Methane (CH4) emissions <br>Nitrous Oxide (N2O) emissions <br>Stationary Combustion
AMERICAN CRYSTAL SUGAR - CROOKSTON,CROOKSTON,Minnesota,56716,1201 Hwy 75 South,POLK COUNTY,47.764444,-96.6325,311313,"C,S,TT","Minerals,Waste",260091.952,Total reported direct emissions<br>CO2 emissions (non-biogenic) <br>Methane (CH4) emissions <br>Nitrous Oxide (N2O) emissions <br>Stationary Combustion<br>Lime Production<br>Industrial Waste Landfills
AMERICAN CRYSTAL SUGAR - E GRAND FORKS,EAST GRAND FORKS,Minnesota,56721,1020 Business Hwy 2,POLK COUNTY,47.925833,-97.006111,311313,"C,S,TT","Minerals,Waste",314639.96,Total reported direct emissions<br>CO2 emissions (non-biogenic) <br>Methane (CH4) emissions <br>Nitrous Oxide (N2O) emissions <br>Biogenic CO2 emissions (metric tons)<br>Stationary Combustion<br>Lime Production<br>Industrial Waste Landfills
AMERICAN CRYSTAL SUGAR - HILLSBORO,HILLSBORO,North Dakota,58045,121 Highway 81 NE,TRAILL COUNTY,47.435833,-97.0625,311313,"C,S,TT","Minerals,Waste",417797.612,Total reported direct emissions<br>CO2 emissions (non-biogenic) <br>Methane (CH4) emissions <br>Nitrous Oxide (N2O) emissions <br>Biogenic CO2 emissions (metric tons)<br>Stationary Combustion<br>Lime Production<br>Industrial Waste Landfills
AMERICAN CRYSTAL SUGAR - MOORHEAD,MOORHEAD,Minnesota,56560,2500 NORTH 11TH STREET,CLAY COUNTY,46.903056,-96.759722,311313,"C,S,TT","Minerals,Waste",277534.058,Total reported direct emissions<br>CO2 emissions (non-biogenic) <br>Methane (CH4) emissions <br>Nitrous Oxide (N2O) emissions <br>Biogenic CO2 emissions (metric tons)<br>Stationary Combustion<br>Lime Production<br>Industrial Waste Landfills
AMERICAN ENVIRONMENTAL LANDFILL,SAND SPRINGS,Oklahoma,74063,212 N. 177TH W. AVENUE,OSAGE COUNTY,36.163345,-96.188988,562212,"C,HH",Waste,233353.646,Total reported direct emissions<br>CO2 emissions (non-biogenic) <br>Methane (CH4) emissions <br>Nitrous Oxide (N2O) emissions <br>Biogenic CO2 emissions (metric tons)<br>Stationary Combustion<br>Municipal Landfills
AMERICAN GYPSUM - BERNALILLO (WALLBOARD) PLANT,BERNALILLO,New Mexico,87004,1000 N HILL RD,SANDOVAL COUNTY,35.330083,-106.5275,327420,C,Minerals,14084.496,Total reported direct emissions<br>CO2 emissions (non-biogenic) <br>Methane (CH4) emissions <br>Nitrous Oxide (N2O) emissions <br>Stationary Combustion
AMERICAN GYPSUM CO /GYPSUM WALLBOARD PLT,DUKE,Oklahoma,73532,0.25 MILES W OF,JACKSON COUNTY,34.66029,-99.58732,327420,C,Minerals,94862.692,Total reported direct emissions<br>CO2 emissions (non-biogenic) <br>Methane (CH4) emissions <br>Nitrous Oxide (N2O) emissions <br>Stationary Combustion
AMERICAN GYPSUM COMPANY,GYPSUM,Colorado,81637,740 Highway #6,EAGLE COUNTY,39.658889,-106.956111,327420,C,Minerals,65195.504,Total reported direct emissions<br>CO2 emissions (non-biogenic) <br>Methane (CH4) emissions <br>Nitrous Oxide (N2O) emissions <br>Stationary Combustion
AMERICAN GYPSUM COMPANY,ALBUQUERQUE,New Mexico,87113,4600 Paseo Del Norte NE,BERNALILLO COUNTY,35.17237,-106.59347,327420,C,Minerals,40892.996,Total reported direct emissions<br>CO2 emissions (non-biogenic) <br>Methane (CH4) emissions <br>Nitrous Oxide (N2O) emissions <br>Stationary Combustion
AMERICAN REFINING GROUP INC,BRADFORD,Pennsylvania,16701,77 NORTH KENDALL AVENUE,MCKEAN COUNTY,41.965472,-78.633108,324110,"C,MM-REF,Y","Petroleum Product Suppliers,Refineries",115865.742,Total reported direct emissions<br>CO2 emissions (non-biogenic) <br>Methane (CH4) emissions <br>Nitrous Oxide (N2O) emissions <br>Stationary Combustion<br>Petroleum Refining
AMERICAN SUGAR REFINING INC - Chalmette Refinery,ARABI,Louisiana,70032,7417 N PETERS ST,ST. BERNARD PARISH,29.953576,-89.997583,311314,C,Other,137418.732,Total reported direct emissions<br>CO2 emissions (non-biogenic) <br>Methane (CH4) emissions <br>Nitrous Oxide (N2O) emissions <br>Stationary Combustion
AMERICAN SYNTHETIC RUBBER,LOUISVILLE,Kentucky,40216,4500 CAMPGROUND ROAD,JEFFERSON COUNTY,38.209317,-85.847511,325212,C,Other,147839.008,Total reported direct emissions<br>CO2 emissions (non-biogenic) <br>Methane (CH4) emissions <br>Nitrous Oxide (N2O) emissions <br>Stationary Combustion
AMERICAS STYRENICS LLC - ST JAMES PLANT,ST. JAMES,Louisiana,70086,9901 HWY 18,ST. JAMES PARISH,30.08013,-90.916,325110,C,Chemicals,670040.384,Total reported direct emissions<br>CO2 emissions (non-biogenic) <br>Methane (CH4) emissions <br>Nitrous Oxide (N2O) emissions <br>Stationary Combustion
"AMGEN MANUFACTURING, LIMITED",JUNCOS,PR,777,RD 31 KM 24.6,JUNCOS MUNICIPIO,18.235793,-65.904429,325412,C,Chemicals,49616.696,Total reported direct emissions<br>CO2 emissions (non-biogenic) <br>Methane (CH4) emissions <br>Nitrous Oxide (N2O) emissions <br>Stationary Combustion
AMP Fremont Energy Center,Fremont,Ohio,43420,1275 Miarer Rd,SANDUSKY COUNTY,41.3771,-83.1615,221112,D,Power Plants,1353140.936,Total reported direct emissions<br>CO2 emissions (non-biogenic) <br>Methane (CH4) emissions <br>Nitrous Oxide (N2O) emissions <br>Electricity Generation
ANALOG DEVICES,CAMAS,Washington,98607,4200 NW PACIFIC RIM BLVD,CLARK COUNTY,45.598844,-122.45232,334413,"C,I",Other,14360.348985,Total reported direct emissions<br>CO2 emissions (non-biogenic) <br>Methane (CH4) emissions <br>Nitrous Oxide (N2O) emissions <br>HFC emissions<br>PFC emissions<br>SF6 emissions <br>NF3 emissions<br>Stationary Combustion<br>Electronics Manufacture
ANCHOR ACQUISITION LLC MONACA PLT,MONACA,Pennsylvania,15061,400 9TH STREET,BEAVER COUNTY,40.69152,-80.2808,327212,"C,N",Minerals,39873.098,Total reported direct emissions<br>CO2 emissions (non-biogenic) <br>Methane (CH4) emissions <br>Nitrous Oxide (N2O) emissions <br>Stationary Combustion<br>Glass Production
ANCHOR HOCKING GLASS CO PLANT NO 1 *,LANCASTER,Ohio,43130,1115 WEST FIFTH AVENUE,FAIRFIELD COUNTY,39.71923,-82.61895,327212,"C,N",Minerals,61440.352,Total reported direct emissions<br>CO2 emissions (non-biogenic) <br>Methane (CH4) emissions <br>Nitrous Oxide (N2O) emissions <br>Stationary Combustion<br>Glass Production
ANCHORAGE REGIONAL LANDFILL,EAGLE RIVER,Alaska,99577,15500 E. EAGLE RIVER LOOP RD,ANCHORAGE MUNICIPALITY,61.290401,-149.604757,562212,"C,HH",Waste,126256.15,Total reported direct emissions<br>CO2 emissions (non-biogenic) <br>Methane (CH4) emissions <br>Stationary Combustion<br>Municipal Landfills
ANDERSON LANDFILL,ANDERSON,California,96007,18703 CAMBRIDGE ROAD,SHASTA COUNTY,40.41754,-122.35787,562212,HH,Waste,54720.5,Total reported direct emissions<br>Methane (CH4) emissions <br>Municipal Landfills
ANGELINA COUNTY WASTE MANAGEMENT CENTER,LUFKIN,Texas,75901,7521 FM 58,ANGELINA COUNTY,31.2525,-94.695,562212,HH,Waste,97542.75,Total reported direct emissions<br>Methane (CH4) emissions <br>Municipal Landfills
ANGUS CHEMICAL CO,STERLINGTON,Louisiana,71280,350 LOUISIANA HIGHWAY 2,OUACHITA PARISH,32.6907,-92.0826,325199,"C,V",Chemicals,118436.624,Total reported direct emissions<br>CO2 emissions (non-biogenic) <br>Methane (CH4) emissions <br>Nitrous Oxide (N2O) emissions <br>Stationary Combustion<br>Nitric Acid Production
ANHEUSER BUSCH BALDWINSVILLE BREWERY,BALDWINSVILLE,New York,13027,2885 BELGIUM ROAD,ONONDAGA COUNTY,43.1691,-76.3112,312120,"C,PP","Other,Suppliers of CO2",25378.7,Total reported direct emissions<br>CO2 emissions (non-biogenic) <br>Methane (CH4) emissions <br>Nitrous Oxide (N2O) emissions <br>Biogenic CO2 emissions (metric tons)<br>Stationary Combustion
ANHEUSER BUSCH INC,COLUMBUS,Ohio,43229,700 SCHROCK ROAD,FRANKLIN COUNTY,40.103056,-82.993056,312120,C,Other,32337.488,Total reported direct emissions<br>CO2 emissions (non-biogenic) <br>Methane (CH4) emissions <br>Nitrous Oxide (N2O) emissions <br>Biogenic CO2 emissions (metric tons)<br>Stationary Combustion
ANHEUSER BUSCH INC. - L.A. BREWERY,VAN NUYS,California,91406,15800 ROSCOE BOULEVARD,LOS ANGELES COUNTY,34.22132,-118.48044,312120,C,Other,31614.708,Total reported direct emissions<br>CO2 emissions (non-biogenic) <br>Methane (CH4) emissions <br>Nitrous Oxide (N2O) emissions <br>Biogenic CO2 emissions (metric tons)<br>Stationary Combustion
ANHEUSER BUSCH INCORPORATED FORT COLLINS BREWERY,FORT COLLINS,Colorado,80524,2351 BUSCH DRIVE,LARIMER COUNTY,40.619722,-105.006111,312120,C,Other,42067.97,Total reported direct emissions<br>CO2 emissions (non-biogenic) <br>Methane (CH4) emissions <br>Nitrous Oxide (N2O) emissions <br>Stationary Combustion
ANHEUSER BUSCH LLC,WILLIAMSBURG,Virginia,23185,7801 POCAHONTAS TRAIL,JAMES CITY COUNTY,37.237518,-76.652662,312120,C,Other,37074.86,Total reported direct emissions<br>CO2 emissions (non-biogenic) <br>Methane (CH4) emissions <br>Nitrous Oxide (N2O) emissions <br>Stationary Combustion
ANHEUSER-BUSCH HOUSTON BREWERY,HOUSTON,Texas,77029,775 GELLHORN DRIVE,HARRIS COUNTY,29.774444,-95.270833,312120,C,Other,44712.56,Total reported direct emissions<br>CO2 emissions (non-biogenic) <br>Methane (CH4) emissions <br>Nitrous Oxide (N2O) emissions <br>Biogenic CO2 emissions (metric tons)<br>Stationary Combustion
ANHEUSER-BUSCH LLC,MERRIMACK,New Hampshire,3054,221 DANIEL WEBSTER HIGHWAY,HILLSBOROUGH COUNTY,42.82407,-71.485564,312120,"C,PP","Other,Suppliers of CO2",13396.914,Total reported direct emissions<br>CO2 emissions (non-biogenic) <br>Methane (CH4) emissions <br>Nitrous Oxide (N2O) emissions <br>Biogenic CO2 emissions (metric tons)<br>Stationary Combustion
ANHEUSER-BUSCH LLC,JACKSONVILLE,Florida,32218,111 BUSCH DR.,DUVAL COUNTY,30.433075,-81.647505,312120,C,Other,55506.09,Total reported direct emissions<br>CO2 emissions (non-biogenic) <br>Methane (CH4) emissions <br>Nitrous Oxide (N2O) emissions <br>Biogenic CO2 emissions (metric tons)<br>Stationary Combustion
"ANHEUSER-BUSCH, INC. CARTERSVI LLE BREWERY",CARTERSVILLE,Georgia,30120,100 BUSCH DR.,BARTOW COUNTY,34.2557,-84.7825,312120,C,Other,19672.81,Total reported direct emissions<br>CO2 emissions (non-biogenic) <br>Methane (CH4) emissions <br>Nitrous Oxide (N2O) emissions <br>Biogenic CO2 emissions (metric tons)<br>Stationary Combustion
"ANHEUSER-BUSCH, INC. NEWARK BREWERY",NEWARK,New Jersey,7114,200 US HIGHWAY ONE,ESSEX COUNTY,40.693625,-74.195918,312120,C,Other,21566.952,Total reported direct emissions<br>CO2 emissions (non-biogenic) <br>Methane (CH4) emissions <br>Nitrous Oxide (N2O) emissions <br>Biogenic CO2 emissions (metric tons)<br>Stationary Combustion
ANIMAS POWER PLANT,FARMINGTON,New Mexico,87401,501 MCCORMICK SCHOOL ROAD,SAN JUAN COUNTY,36.72488,-108.19144,221112,C,Power Plants,1234.696,Total reported direct emissions<br>CO2 emissions (non-biogenic) <br>Methane (CH4) emissions <br>Nitrous Oxide (N2O) emissions <br>Stationary Combustion
ANN ARBOR SLF PHASE I & II,ANN ARBOR,Michigan,48108,4150 PLATT RD,WASHTENAW COUNTY,42.22703,-83.69976,562212,HH,Waste,18417.5,Total reported direct emissions<br>Methane (CH4) emissions <br>Municipal Landfills
ANR Pipeline (Jena Compressor Station),Jena,Louisiana,71342,9992 Highway 127 South,LA SALLE PARISH,31.526874,-92.194728,486210,"C,W-NGTC",Petroleum and Natural Gas Systems,63948.916,Total reported direct emissions<br>CO2 emissions (non-biogenic) <br>Methane (CH4) emissions <br>Nitrous Oxide (N2O) emissions <br>Stationary Combustion<br>Petroleum and Natural Gas Systems – Transmission/Compression
ANR Pipeline Alden CS,ALDEN,Kansas,67512,2135 11th Road,RICE COUNTY,38.22602,-98.290368,486210,"C,W-NGTC",Petroleum and Natural Gas Systems,24488.47,Total reported direct emissions<br>CO2 emissions (non-biogenic) <br>Methane (CH4) emissions <br>Nitrous Oxide (N2O) emissions <br>Stationary Combustion<br>Petroleum and Natural Gas Systems – Transmission/Compression
ANR Pipeline Birmingham CS,BIRMINGHAM,Iowa,52535,2795 LOCUST AVE,JEFFERSON COUNTY,40.901819,-91.967609,486210,"C,W-NGTC",Petroleum and Natural Gas Systems,33986.886,Total reported direct emissions<br>CO2 emissions (non-biogenic) <br>Methane (CH4) emissions <br>Nitrous Oxide (N2O) emissions <br>Stationary Combustion<br>Petroleum and Natural Gas Systems – Transmission/Compression
ANR Pipeline Bridgman CS,BRIDGMAN,Michigan,49106,3372 BROWNTOWN RD,BERRIEN COUNTY,41.897126,-86.534271,486210,"C,W-NGTC",Petroleum and Natural Gas Systems,33095.096,Total reported direct emissions<br>CO2 emissions (non-biogenic) <br>Methane (CH4) emissions <br>Nitrous Oxide (N2O) emissions <br>Stationary Combustion<br>Petroleum and Natural Gas Systems – Transmission/Compression
ANR Pipeline Brownsville CS,Brownsville,Tennessee,38012,70 Pumping Station Road,HAYWOOD COUNTY,35.44545,-89.28553,486210,"C,W-NGTC",Petroleum and Natural Gas Systems,56135.652,Total reported direct emissions<br>CO2 emissions (non-biogenic) <br>Methane (CH4) emissions <br>Nitrous Oxide (N2O) emissions <br>Stationary Combustion<br>Petroleum and Natural Gas Systems – Transmission/Compression
ANR Pipeline Celestine CS,Celestine,Indiana,47521,146 S. Celestine South,DUBOIS COUNTY,38.377528,-86.777306,486210,"C,W-NGTC",Petroleum and Natural Gas Systems,48254.284,Total reported direct emissions<br>CO2 emissions (non-biogenic) <br>Methane (CH4) emissions <br>Nitrous Oxide (N2O) emissions <br>Stationary Combustion<br>Petroleum and Natural Gas Systems – Transmission/Compression
ANR Pipeline Cottage Grove CS,Cottage Grove,Tennessee,38224,7845 Highway 140 N,HENRY COUNTY,36.390381,-88.481323,486210,"C,W-NGTC",Petroleum and Natural Gas Systems,45259.098,Total reported direct emissions<br>CO2 emissions (non-biogenic) <br>Methane (CH4) emissions <br>Nitrous Oxide (N2O) emissions <br>Stationary Combustion<br>Petroleum and Natural Gas Systems – Transmission/Compression
ANR Pipeline Defiance CS,Defiance,Ohio,43512,6357 State Route 66 N,DEFIANCE COUNTY,41.349885,-84.359487,486210,"C,W-NGTC",Petroleum and Natural Gas Systems,3473.146,Total reported direct emissions<br>CO2 emissions (non-biogenic) <br>Methane (CH4) emissions <br>Nitrous Oxide (N2O) emissions <br>Stationary Combustion<br>Petroleum and Natural Gas Systems – Transmission/Compression
ANR Pipeline Delhi CS,Delhi,Louisiana,71232,1894 Highway 80,RICHLAND PARISH,32.465897,-91.604473,486210,"C,W-NGTC",Petroleum and Natural Gas Systems,48520.09,Total reported direct emissions<br>CO2 emissions (non-biogenic) <br>Methane (CH4) emissions <br>Nitrous Oxide (N2O) emissions <br>Stationary Combustion<br>Petroleum and Natural Gas Systems – Transmission/Compression
ANR Pipeline E.G. Hill CS,GRUVER,Texas,79040,15175 County Road,HANSFORD COUNTY,36.494444,-101.469444,486210,"C,W-NGTC",Petroleum and Natural Gas Systems,17093.748,Total reported direct emissions<br>CO2 emissions (non-biogenic) <br>Methane (CH4) emissions <br>Nitrous Oxide (N2O) emissions <br>Stationary Combustion<br>Petroleum and Natural Gas Systems – Transmission/Compression
ANR Pipeline Enterprise CS,ENTERPRISE,Kansas,67441,1615 NAIL ROAD,DICKINSON COUNTY,38.819723,-97.093625,486210,"C,W-NGTC",Petroleum and Natural Gas Systems,31541.952,Total reported direct emissions<br>CO2 emissions (non-biogenic) <br>Methane (CH4) emissions <br>Nitrous Oxide (N2O) emissions <br>Stationary Combustion<br>Petroleum and Natural Gas Systems – Transmission/Compression
ANR Pipeline Eunice CS,Eunice,Louisiana,70535,4202 Fournerat Road,ACADIA PARISH,30.466034,-92.520137,486210,"C,W-NGTC",Petroleum and Natural Gas Systems,68984.302,Total reported direct emissions<br>CO2 emissions (non-biogenic) <br>Methane (CH4) emissions <br>Nitrous Oxide (N2O) emissions <br>Stationary Combustion<br>Petroleum and Natural Gas Systems – Transmission/Compression
ANR Pipeline Greensburg CS,GREENSBURG,Kansas,67054,,KIOWA COUNTY,37.61422,-99.396874,486210,"C,W-NGTC",Petroleum and Natural Gas Systems,32690.752,Total reported direct emissions<br>CO2 emissions (non-biogenic) <br>Methane (CH4) emissions <br>Nitrous Oxide (N2O) emissions <br>Stationary Combustion<br>Petroleum and Natural Gas Systems – Transmission/Compression
ANR Pipeline Blue Lake Complex Gas Storage Facility,MANCELONA,Michigan,49659,10000 PFLUM RD NE,KALKASKA COUNTY,44.8367,-84.9669,486210,"C,W-UNSTG",Petroleum and Natural Gas Systems,34871.132,Total reported direct emissions<br>CO2 emissions (non-biogenic) <br>Methane (CH4) emissions <br>Nitrous Oxide (N2O) emissions <br>Stationary Combustion<br>Petroleum and Natural Gas Systems – Underground Storage
ANR Pipeline Greenville CS,Greenville,Mississippi,38703,1336 South Raceway Road,WASHINGTON COUNTY,33.372167,-91.00575,486210,"C,W-NGTC",Petroleum and Natural Gas Systems,44472.348,Total reported direct emissions<br>CO2 emissions (non-biogenic) <br>Methane (CH4) emissions <br>Nitrous Oxide (N2O) emissions <br>Stationary Combustion<br>Petroleum and Natural Gas Systems – Transmission/Compression
ANR Pipeline Hamilton CS,HAMILTON,Michigan,49419,4193 134TH AVENUE,ALLEGAN COUNTY,42.66621,-85.95642,486210,"C,W-NGTC",Petroleum and Natural Gas Systems,24240.024,Total reported direct emissions<br>CO2 emissions (non-biogenic) <br>Methane (CH4) emissions <br>Nitrous Oxide (N2O) emissions <br>Stationary Combustion<br>Petroleum and Natural Gas Systems – Transmission/Compression
ANR Pipeline Havensville CS,HAVENSVILLE,Kansas,66432,19955 ENGLISH RIDGE RD,POTTAWATOMIE COUNTY,39.490718,-96.041662,486210,"C,W-NGTC",Petroleum and Natural Gas Systems,13799.252,Total reported direct emissions<br>CO2 emissions (non-biogenic) <br>Methane (CH4) emissions <br>Nitrous Oxide (N2O) emissions <br>Stationary Combustion<br>Petroleum and Natural Gas Systems – Transmission/Compression
ANR Pipeline LaGrange CS,LaGrange,Indiana,46761,2255 West US 20,LAGRANGE COUNTY,41.6413,-85.4685,486210,"C,W-NGTC",Petroleum and Natural Gas Systems,28705.196,Total reported direct emissions<br>CO2 emissions (non-biogenic) <br>Methane (CH4) emissions <br>Nitrous Oxide (N2O) emissions <br>Stationary Combustion<br>Petroleum and Natural Gas Systems – Transmission/Compression
ANR Pipeline Lineville CS,LINEVILLE,Iowa,50147,2868 15TH STREET,WAYNE COUNTY,40.630044,-93.540108,486210,"C,W-NGTC",Petroleum and Natural Gas Systems,25497.314,Total reported direct emissions<br>CO2 emissions (non-biogenic) <br>Methane (CH4) emissions <br>Nitrous Oxide (N2O) emissions <br>Stationary Combustion<br>Petroleum and Natural Gas Systems – Transmission/Compression
ANR Pipeline Madisonville CS,Madisonville,Kentucky,77002,7500 Nebo Road,HOPKINS COUNTY,37.3823,-87.6177,486210,"C,W-NGTC",Petroleum and Natural Gas Systems,41047.908,Total reported direct emissions<br>CO2 emissions (non-biogenic) <br>Methane (CH4) emissions <br>Nitrous Oxide (N2O) emissions <br>Stationary Combustion<br>Petroleum and Natural Gas Systems – Transmission/Compression
ANR Pipeline Maitland CS,MAITLAND,Missouri,64466,33854 COUNTY HIGHWAY TT,HOLT COUNTY,40.175383,-95.122361,486210,"C,W-NGTC",Petroleum and Natural Gas Systems,40575.876,Total reported direct emissions<br>CO2 emissions (non-biogenic) <br>Methane (CH4) emissions <br>Nitrous Oxide (N2O) emissions <br>Stationary Combustion<br>Petroleum and Natural Gas Systems – Transmission/Compression
ANR Pipeline Meade CS,Meade,Kansas,67864,28111 11 Road,MEADE COUNTY,37.078655,-100.47068,486210,"C,W-NGTC",Petroleum and Natural Gas Systems,12695.064,Total reported direct emissions<br>CO2 emissions (non-biogenic) <br>Methane (CH4) emissions <br>Nitrous Oxide (N2O) emissions <br>Stationary Combustion<br>Petroleum and Natural Gas Systems – Transmission/Compression
ANR Pipeline Mooreland CS,Mooreland,Oklahoma,73852,14070 US Highway 412,WOODWARD COUNTY,36.473972,-99.145615,486210,"C,W-NGTC",Petroleum and Natural Gas Systems,1228.0,Total reported direct emissions<br>CO2 emissions (non-biogenic) <br>Methane (CH4) emissions <br>Stationary Combustion<br>Petroleum and Natural Gas Systems – Transmission/Compression
ANR Pipeline New Windsor CS,NEW WINDSOR,Illinois,61465,296 NORTH 600 AVE,HENRY COUNTY,41.21009,-90.43646,486210,"C,W-NGTC",Petroleum and Natural Gas Systems,14077.108,Total reported direct emissions<br>CO2 emissions (non-biogenic) <br>Methane (CH4) emissions <br>Nitrous Oxide (N2O) emissions <br>Stationary Combustion<br>Petroleum and Natural Gas Systems – Transmission/Compression
ANR Pipeline Patterson CS,PATTERSON,Louisiana,70392,3609 Highway 90,ST. MARY PARISH,29.691875,-91.342885,486210,"C,W-NGTC",Petroleum and Natural Gas Systems,40130.972,Total reported direct emissions<br>CO2 emissions (non-biogenic) <br>Methane (CH4) emissions <br>Nitrous Oxide (N2O) emissions <br>Stationary Combustion<br>Petroleum and Natural Gas Systems – Transmission/Compression
ANR Pipeline Portland CS,Portland,Indiana,47371,6059 W State Road 26,JAY COUNTY,40.44464,-85.09691,486210,"C,W-NGTC",Petroleum and Natural Gas Systems,3370.2,Total reported direct emissions<br>CO2 emissions (non-biogenic) <br>Methane (CH4) emissions <br>Stationary Combustion<br>Petroleum and Natural Gas Systems – Transmission/Compression
ANR Pipeline Sandwich CS,SANDWICH,Illinois,60548,6650 SANDY BLUFF RD,KENDALL COUNTY,41.6227,-88.58362,486210,"C,W-NGTC",Petroleum and Natural Gas Systems,12660.814,Total reported direct emissions<br>CO2 emissions (non-biogenic) <br>Methane (CH4) emissions <br>Nitrous Oxide (N2O) emissions <br>Stationary Combustion<br>Petroleum and Natural Gas Systems – Transmission/Compression
ANR Pipeline Sardis CS,Sardis,Mississippi,38666,2099 Holly Grove Road,PANOLA COUNTY,34.423067,-90.125564,486210,"C,W-NGTC",Petroleum and Natural Gas Systems,30058.952,Total reported direct emissions<br>CO2 emissions (non-biogenic) <br>Methane (CH4) emissions <br>Nitrous Oxide (N2O) emissions <br>Stationary Combustion<br>Petroleum and Natural Gas Systems – Transmission/Compression
ANR Pipeline St. John CS,ST JOHN,Indiana,46373,10313 WHITE OAK AVE,LAKE COUNTY,41.431667,-87.488972,486210,"C,W-NGTC",Petroleum and Natural Gas Systems,7890.082,Total reported direct emissions<br>CO2 emissions (non-biogenic) <br>Methane (CH4) emissions <br>Nitrous Oxide (N2O) emissions <br>Stationary Combustion<br>Petroleum and Natural Gas Systems – Transmission/Compression
ANR Pipeline Woodstock CS,Woodstock,Illinois,60098,15313 West South Street Road,MCHENRY COUNTY,42.288284,-88.494903,486210,"C,W-NGTC",Petroleum and Natural Gas Systems,38625.264,Total reported direct emissions<br>CO2 emissions (non-biogenic) <br>Methane (CH4) emissions <br>Nitrous Oxide (N2O) emissions <br>Stationary Combustion<br>Petroleum and Natural Gas Systems – Transmission/Compression
ANR Pipeline Woolfolk CS,BIG RAPIDS,Michigan,49307,11039 150TH AVENUE,MECOSTA COUNTY,43.6249,-85.3844,486210,"C,W-NGTC",Petroleum and Natural Gas Systems,28735.016,Total reported direct emissions<br>CO2 emissions (non-biogenic) <br>Methane (CH4) emissions <br>Nitrous Oxide (N2O) emissions <br>Stationary Combustion<br>Petroleum and Natural Gas Systems – Transmission/Compression
ANSHUTZ RANCH EAST GAS PLANT,EVANSTON,Wyoming,82930,20 MILES SOUTHWEST OF EVANSTON,UINTA COUNTY,41.067222,-111.040833,211130,"C,W-PROC",Petroleum and Natural Gas Systems,3221.338,Total reported direct emissions<br>CO2 emissions (non-biogenic) <br>Methane (CH4) emissions <br>Nitrous Oxide (N2O) emissions <br>Stationary Combustion<br>Petroleum and Natural Gas Systems – Processing
ANTELOPE VALLEY RECYCLING AND DISPOSAL FACILITY,PALMDALE,California,93551,1200 WEST CITY RANCH ROAD,LOS ANGELES COUNTY,34.5697,-118.1534,562212,"C,HH",Waste,37467.3,Total reported direct emissions<br>CO2 emissions (non-biogenic) <br>Methane (CH4) emissions <br>Stationary Combustion<br>Municipal Landfills
APACHE JUNCTION LANDFILL,APACHE JUNCTION,Arizona,85219,4050 SOUTH TOMAHAWK RD,PINAL COUNTY,33.377246,-111.528771,562212,HH,Waste,68624.0,Total reported direct emissions<br>Methane (CH4) emissions <br>Municipal Landfills
APACHE NITROGEN PRODUCTS - PLANT,St. David,Arizona,85630,1436 SOUTH APACHE POWDER ROAD,COCHISE COUNTY,31.88,-110.24,325311,"C,V",Chemicals,442395.318,Total reported direct emissions<br>CO2 emissions (non-biogenic) <br>Methane (CH4) emissions <br>Nitrous Oxide (N2O) emissions <br>Stationary Combustion<br>Nitric Acid Production
"APEX ENVIRONMENTAL, LLC - SANITARY LANDFILL (0641000223)",AMSTERDAM,Ohio,43903,11 COUNTY ROAD 78,JEFFERSON COUNTY,40.432403,-80.911512,562212,"C,HH",Waste,494306.75,Total reported direct emissions<br>CO2 emissions (non-biogenic) <br>Methane (CH4) emissions <br>Stationary Combustion<br>Municipal Landfills
APEX REGIONAL LANDFILL,LAS VEGAS,Nevada,89165,13550 US HIGHWAY 93 NORTH,CLARK COUNTY,36.29423,-115.28183,562212,"C,HH",Waste,206126.396,Total reported direct emissions<br>CO2 emissions (non-biogenic) <br>Methane (CH4) emissions <br>Nitrous Oxide (N2O) emissions <br>Biogenic CO2 emissions (metric tons)<br>Stationary Combustion<br>Municipal Landfills
"APG Polytech, LLC",APPLE GROVE,West Virginia,25502,27610 Huntington Road,MASON COUNTY,38.664483,-82.169733,325211,C,Other,45035.58,Total reported direct emissions<br>CO2 emissions (non-biogenic) <br>Methane (CH4) emissions <br>Nitrous Oxide (N2O) emissions <br>Stationary Combustion
APPLEBY TREATER,Appleby,Texas,75965,,NACOGDOCHES COUNTY,31.6912,-94.5833,211130,"C,W-PROC",Petroleum and Natural Gas Systems,60413.092,Total reported direct emissions<br>CO2 emissions (non-biogenic) <br>Methane (CH4) emissions <br>Nitrous Oxide (N2O) emissions <br>Stationary Combustion<br>Petroleum and Natural Gas Systems – Processing
APPLETON ROARING SPRING PAPER MFG,ROARING SPRING,Pennsylvania,16673,100 PAPER MILL RD.,BLAIR COUNTY,40.33873,-78.405175,322121,"AA,C",Pulp and Paper,87841.182,Total reported direct emissions<br>CO2 emissions (non-biogenic) <br>Methane (CH4) emissions <br>Nitrous Oxide (N2O) emissions <br>Biogenic CO2 emissions (metric tons)<br>Stationary Combustion<br>Pulp and Paper Manufacturing
APPVION - APPLETON PLT,APPLETON,Wisconsin,54911,825 E WISCONSIN AVE,OUTAGAMIE COUNTY,44.2729,-88.39311,322230,C,Pulp and Paper,29345.04,Total reported direct emissions<br>CO2 emissions (non-biogenic) <br>Methane (CH4) emissions <br>Nitrous Oxide (N2O) emissions <br>Stationary Combustion
APS Saguaro Power Plant,RED ROCK,Arizona,85245,MAIL POST 228,Pinal,32.5517,-111.3,221112,"C,D",Power Plants,81109.748,Total reported direct emissions<br>CO2 emissions (non-biogenic) <br>Methane (CH4) emissions <br>Nitrous Oxide (N2O) emissions <br>Stationary Combustion<br>Electricity Generation
APS West Phoenix Power Plant,PHOENIX,Arizona,85043,4606 WEST HADLEY,Maricopa,33.4417,-112.1583,221112,"C,D",Power Plants,1659120.48,Total reported direct emissions<br>CO2 emissions (non-biogenic) <br>Methane (CH4) emissions <br>Nitrous Oxide (N2O) emissions <br>Stationary Combustion<br>Electricity Generation
AR GLASS CONTAINER CORP,JONESBORO,Arkansas,72401,516 WEST JOHNSON AVENUE,CRAIGHEAD COUNTY,35.845862,-90.707271,327213,"C,N",Minerals,36381.732,Total reported direct emissions<br>CO2 emissions (non-biogenic) <br>Methane (CH4) emissions <br>Nitrous Oxide (N2O) emissions <br>Stationary Combustion<br>Glass Production
"ARAUCO NORTH AMERICA, INC - BENNETTSVILLE MDF",BENNETTSVILLE,South Carolina,29512,579 WILLAMETTE ROAD,MARLBORO COUNTY,34.595452,-79.776449,321219,C,Other,5777.192,Total reported direct emissions<br>CO2 emissions (non-biogenic) <br>Methane (CH4) emissions <br>Nitrous Oxide (N2O) emissions <br>Biogenic CO2 emissions (metric tons)<br>Stationary Combustion
ARCELORMITTAL TUBULAR PRODUCTS USA LLC,SHELBY,Ohio,44875,132-140 W MAIN ST,RICHLAND COUNTY,40.88135,-82.66758,331210,C,Metals,57855.632,Total reported direct emissions<br>CO2 emissions (non-biogenic) <br>Methane (CH4) emissions <br>Nitrous Oxide (N2O) emissions <br>Stationary Combustion
ARCHER DANIEL MIDLAND COMPANY,COLUMBUS,Nebraska,68601,3000 E 8TH STREET,PLATTE COUNTY,41.4229,-97.291,311221,"C,II","Other,Waste",821896.492,Total reported direct emissions<br>CO2 emissions (non-biogenic) <br>Methane (CH4) emissions <br>Nitrous Oxide (N2O) emissions <br>Biogenic CO2 emissions (metric tons)<br>Stationary Combustion<br>Industrial Wastewater Treatment
ARCHER DANIELS MIDLAND,FRANKFORT,Indiana,46041,2191 W CR 0 NS,CLINTON COUNTY,40.2853,-86.5479,311224,C,Other,52801.552,Total reported direct emissions<br>CO2 emissions (non-biogenic) <br>Methane (CH4) emissions <br>Nitrous Oxide (N2O) emissions <br>Stationary Combustion
ARCHER DANIELS MIDLAND,MARSHALL,Minnesota,56258,400 WEST ERIE ROAD,LYON COUNTY,44.474074,-95.783525,311221,"C,II,PP","Other,Suppliers of CO2,Waste",172749.802,Total reported direct emissions<br>CO2 emissions (non-biogenic) <br>Methane (CH4) emissions <br>Nitrous Oxide (N2O) emissions <br>Biogenic CO2 emissions (metric tons)<br>Stationary Combustion<br>Industrial Wastewater Treatment
ARCHER DANIELS MIDLAND COMPANY,LINCOLN,Nebraska,68507,7800 THAYER STREET,LANCASTER COUNTY,40.866368,-96.617738,311224,C,Other,158309.996,Total reported direct emissions<br>CO2 emissions (non-biogenic) <br>Methane (CH4) emissions <br>Nitrous Oxide (N2O) emissions <br>Stationary Combustion
ARCHER DANIELS MIDLAND PROCESSING,VELVA,North Dakota,58790,1388 HIGHWAY 97,MCHENRY COUNTY,48.062103,-100.924722,311224,C,Other,44384.432,Total reported direct emissions<br>CO2 emissions (non-biogenic) <br>Methane (CH4) emissions <br>Nitrous Oxide (N2O) emissions <br>Stationary Combustion
ARCONIC DAVENPORT LLC,BETTENDORF,Iowa,52722,4879 STATE STREET,SCOTT COUNTY,41.53115,-90.4682,331315,C,Metals,233394.472,Total reported direct emissions<br>CO2 emissions (non-biogenic) <br>Methane (CH4) emissions <br>Nitrous Oxide (N2O) emissions <br>Stationary Combustion
ARCONIC LAFAYETTE LLC,LAFAYETTE,Indiana,47905,3131 E MAIN ST,TIPPECANOE COUNTY,40.401861,-86.866139,331314,C,Metals,47815.22,Total reported direct emissions<br>CO2 emissions (non-biogenic) <br>Methane (CH4) emissions <br>Nitrous Oxide (N2O) emissions <br>Stationary Combustion
ARCONIC TENNESSEE OPERATIONS,ALCOA,Tennessee,37701,2300 N WRIGHT RD,BLOUNT COUNTY,35.811815,-83.969576,331315,C,Metals,158260.104,Total reported direct emissions<br>CO2 emissions (non-biogenic) <br>Methane (CH4) emissions <br>Nitrous Oxide (N2O) emissions <br>Stationary Combustion
ARDEN LDFL,WASHINGTON,Pennsylvania,15301,200 Rangos Lane,WASHINGTON COUNTY,40.208427,-80.264771,562212,"C,HH",Waste,23291.746,Total reported direct emissions<br>CO2 emissions (non-biogenic) <br>Methane (CH4) emissions <br>Nitrous Oxide (N2O) emissions <br>Biogenic CO2 emissions (metric tons)<br>Stationary Combustion<br>Municipal Landfills
ARGOS CEMENT LLC. - ROBERTA PLANT,CALERA,Alabama,35040,8039 HIGHWAY 25,SHELBY COUNTY,33.1043,-86.7985,327310,"C,H",Minerals,927478.25,Total reported direct emissions<br>CO2 emissions (non-biogenic) <br>Methane (CH4) emissions <br>Nitrous Oxide (N2O) emissions <br>Stationary Combustion<br>Cement Production
ARGOS USA -Martinsburg,MARTINSBURG,West Virginia,25401,1826 SOUTH QUEEN STREET,BERKELEY COUNTY,39.434879,-77.977911,327310,"C,H",Minerals,866766.086,Total reported direct emissions<br>CO2 emissions (non-biogenic) <br>Methane (CH4) emissions <br>Nitrous Oxide (N2O) emissions <br>Stationary Combustion<br>Cement Production
ARIZONA CHEMICAL COMPANY,PANAMA CITY,Florida,32401,"2 EVERITT AVE., S. END",BAY COUNTY,30.143939,-85.618924,325211,C,Other,61347.02,Total reported direct emissions<br>CO2 emissions (non-biogenic) <br>Methane (CH4) emissions <br>Nitrous Oxide (N2O) emissions <br>Stationary Combustion
ARIZONA STATE UNIVERSITY,TEMPE,Arizona,85281,"300 E. University Drive, Suite 320",MARICOPA COUNTY,33.42195,-111.935,611310,C,Other,59391.476,Total reported direct emissions<br>CO2 emissions (non-biogenic) <br>Methane (CH4) emissions <br>Nitrous Oxide (N2O) emissions <br>Stationary Combustion
ARKALON ETHANOL LLC,LIBERAL,Kansas,67901,8664 RD P,SEWARD COUNTY,37.107705,-100.796294,325193,"C,PP","Other,Suppliers of CO2",101169.92,Total reported direct emissions<br>CO2 emissions (non-biogenic) <br>Methane (CH4) emissions <br>Nitrous Oxide (N2O) emissions <br>Stationary Combustion
ARKANSAS LIME COMPANY,BATESVILLE,Arkansas,72501,600 LIMEDALE ROAD,INDEPENDENCE COUNTY,35.794,-91.736,327410,"C,S",Minerals,416896.442,Total reported direct emissions<br>CO2 emissions (non-biogenic) <br>Methane (CH4) emissions <br>Nitrous Oxide (N2O) emissions <br>Stationary Combustion<br>Lime Production
ARKANSAS STEEL ASSOCIATES,NEWPORT,Arkansas,72112,2803 VAN DYKE ROAD,JACKSON COUNTY,35.648518,-91.244662,331221,"C,Q",Metals,65059.348,Total reported direct emissions<br>CO2 emissions (non-biogenic) <br>Methane (CH4) emissions <br>Nitrous Oxide (N2O) emissions <br>Stationary Combustion<br>Iron and Steel Production
ARKEMA BEAUMONT PLANT,BEAUMONT,Texas,77701,2810 GULF STATES ROAD,JEFFERSON COUNTY,30.060226,-94.058976,325199,C,Chemicals,64880.056,Total reported direct emissions<br>CO2 emissions (non-biogenic) <br>Methane (CH4) emissions <br>Nitrous Oxide (N2O) emissions <br>Stationary Combustion
ARKEMA INC CLEAR LAKE,PASADENA,Texas,77507,9502 BAYPORT BLVD STE B,HARRIS COUNTY,29.625819,-95.061592,325110,C,Chemicals,84880.88,Total reported direct emissions<br>CO2 emissions (non-biogenic) <br>Methane (CH4) emissions <br>Nitrous Oxide (N2O) emissions <br>Stationary Combustion
"ARKEMA, INC.",CALVERT CITY,Kentucky,42029,4444 INDUSTRIAL PARKWAY,MARSHALL COUNTY,37.056699,-88.365727,325120,"C,L,OO","Chemicals,Industrial Gas Suppliers",614181.108,Total reported direct emissions<br>CO2 emissions (non-biogenic) <br>Methane (CH4) emissions <br>Nitrous Oxide (N2O) emissions <br>HFC emissions<br>Very Short-lived Compounds emissions<br>Other GHGs (metric tons CO2e)<br>Stationary Combustion<br>Fluorinated GHG Production
ARLANXEO Orange Site,Orange,Texas,77630,4647 FM 1006,ORANGE COUNTY,30.049622,-93.772226,325212,C,Other,134662.692,Total reported direct emissions<br>CO2 emissions (non-biogenic) <br>Methane (CH4) emissions <br>Nitrous Oxide (N2O) emissions <br>Stationary Combustion
ARMSTRONG CEMENT & SUPPLY,CABOT,Pennsylvania,16023,100 CLEARFIELD ROAD,BUTLER COUNTY,40.7948,-79.70017,327310,"C,H",Minerals,183951.16,Total reported direct emissions<br>CO2 emissions (non-biogenic) <br>Methane (CH4) emissions <br>Nitrous Oxide (N2O) emissions <br>Stationary Combustion<br>Cement Production
ARMSTRONG WORLD IND MARIETTA CEILING PLT,MARIETTA,Pennsylvania,17547,1507 RIVER ROAD,LANCASTER COUNTY,40.0586,-76.58845,339999,C,Other,67167.348,Total reported direct emissions<br>CO2 emissions (non-biogenic) <br>Methane (CH4) emissions <br>Nitrous Oxide (N2O) emissions <br>Stationary Combustion
ARMSTRONG WORLD INDUSTRIES INC.,PENSACOLA,Florida,32505,300 SOUTH MYRICK ST,ESCAMBIA COUNTY,30.408671,-87.250165,339999,C,Other,25305.504,Total reported direct emissions<br>CO2 emissions (non-biogenic) <br>Methane (CH4) emissions <br>Nitrous Oxide (N2O) emissions <br>Stationary Combustion
ARTESIA GAS PLANT,ARTESIA,New Mexico,88210,,EDDY COUNTY,32.7564,-104.2111,211130,"C,PP,UU,W-PROC","Injection of CO2,Petroleum and Natural Gas Systems,Suppliers of CO2",95492.496,Total reported direct emissions<br>CO2 emissions (non-biogenic) <br>Methane (CH4) emissions <br>Nitrous Oxide (N2O) emissions <br>Stationary Combustion<br>Petroleum and Natural Gas Systems – Processing
ASARCO LLC AMARILLO COPPER REFINERY,AMARILLO,Texas,79108,7001 NORTH HIGHWAY 136,POTTER COUNTY,35.284533,-101.730042,331410,C,Metals,17097.736,Total reported direct emissions<br>CO2 emissions (non-biogenic) <br>Methane (CH4) emissions <br>Nitrous Oxide (N2O) emissions <br>Stationary Combustion
ASARCO LLC Hayden Operations,Hayden,Arizona,85135,866 N. Hayden Avenue,GILA COUNTY,33.003378,-110.77632,331410,C,Metals,304.248,Total reported direct emissions<br>CO2 emissions (non-biogenic) <br>Methane (CH4) emissions <br>Nitrous Oxide (N2O) emissions <br>Stationary Combustion
ASCEND PERFORMANCE MATERIALS CHOCOLATE BAYOU FACILITY,ALVIN,Texas,77512,,BRAZORIA COUNTY,29.2567,-95.2144,325199,"C,X",Chemicals,598486.844,Total reported direct emissions<br>CO2 emissions (non-biogenic) <br>Methane (CH4) emissions <br>Nitrous Oxide (N2O) emissions <br>Stationary Combustion<br>Petrochemical Production
ASCEND PERFORMANCE MATERIALS OPERATIONS LLC,GREENWOOD,South Carolina,29646,1515 HWY 246 S,GREENWOOD COUNTY,34.2306,-82.05776,325211,C,Other,45043.38,Total reported direct emissions<br>CO2 emissions (non-biogenic) <br>Methane (CH4) emissions <br>Nitrous Oxide (N2O) emissions <br>Stationary Combustion
ASH GROVE CEMENT CO-CHANUTE PLANT,CHANUTE,Kansas,66720,1801 NORTH SANTA FE STREET,NEOSHO COUNTY,37.698786,-95.459748,327310,"C,H",Minerals,1024577.124,Total reported direct emissions<br>CO2 emissions (non-biogenic) <br>Methane (CH4) emissions <br>Nitrous Oxide (N2O) emissions <br>Stationary Combustion<br>Cement Production
ASH GROVE CEMENT COMPANY,MIDLOTHIAN,Texas,76065,900 GIFCO ROAD,ELLIS COUNTY,32.51993,-97.0068,327310,"C,H",Minerals,668482.528,Total reported direct emissions<br>CO2 emissions (non-biogenic) <br>Methane (CH4) emissions <br>Nitrous Oxide (N2O) emissions <br>Stationary Combustion<br>Cement Production
ASH GROVE CEMENT COMPANY-DURKEE,DURKEE,Oregon,97905,33060 SHIRTTAIL CREEK ROAD,BAKER COUNTY,44.5428,-117.4218,327310,"C,H",Minerals,685016.71,Total reported direct emissions<br>CO2 emissions (non-biogenic) <br>Methane (CH4) emissions <br>Nitrous Oxide (N2O) emissions <br>Stationary Combustion<br>Cement Production
ASH GROVE CEMENT COMPANY-Louisville,LOUISVILLE,Nebraska,68037,16215 HWY. 50,CASS COUNTY,41.005565,-96.154917,327310,"C,H",Minerals,577517.612,Total reported direct emissions<br>CO2 emissions (non-biogenic) <br>Methane (CH4) emissions <br>Nitrous Oxide (N2O) emissions <br>Stationary Combustion<br>Cement Production
ASH GROVE CEMENT COMPANY-MONTANA CITY,CLANCY,Montana,59634,100 HIGHWAY 518,JEFFERSON COUNTY,46.54448,-111.92062,327310,"C,H",Minerals,320046.372,Total reported direct emissions<br>CO2 emissions (non-biogenic) <br>Methane (CH4) emissions <br>Nitrous Oxide (N2O) emissions <br>Stationary Combustion<br>Cement Production
ASH GROVE CEMENT COMPANY-SEATTLE,SEATTLE,Washington,98134,3801 EAST MARGINAL WAY SOUTH,KING COUNTY,47.56799,-122.34255,327310,H,Minerals,346010.2,Total reported direct emissions<br>CO2 emissions (non-biogenic) <br>Methane (CH4) emissions <br>Nitrous Oxide (N2O) emissions <br>Cement Production
ASH GROVE CEMENT-FOREMAN,Foreman,Arkansas,71836,4343 HWY 108,LITTLE RIVER COUNTY,33.6936,-94.4166,327310,"C,H",Minerals,856858.272,Total reported direct emissions<br>CO2 emissions (non-biogenic) <br>Methane (CH4) emissions <br>Nitrous Oxide (N2O) emissions <br>Stationary Combustion<br>Cement Production
ASHLEY Energy LLC,SAINT LOUIS,Missouri,63102,1 ASHLEY STREET,ST. LOUIS CITY,38.63639,-90.18108,221330,C,Power Plants,40166.148,Total reported direct emissions<br>CO2 emissions (non-biogenic) <br>Methane (CH4) emissions <br>Nitrous Oxide (N2O) emissions <br>Stationary Combustion
ASTORIA ENERGY LLC & ASTORIA ENERGY II LLC,ASTORIA,New York,11105,17-10 STEINWAY ST,QUEENS COUNTY,40.7825,-73.8964,221112,"C,D",Power Plants,2201073.13,Total reported direct emissions<br>CO2 emissions (non-biogenic) <br>Methane (CH4) emissions <br>Nitrous Oxide (N2O) emissions <br>Stationary Combustion<br>Electricity Generation
ATASCOCITA RECYCLING AND DISPOSAL FACILITY,HUMBLE,Texas,77396,3623 WILSON ROAD,HARRIS COUNTY,29.95135,-95.24966,562212,HH,Waste,274346.5,Total reported direct emissions<br>Methane (CH4) emissions <br>Municipal Landfills
ATHENS & CLARKE COUNTIES-DUNLAP ROAD LF,WINTERVILLE,Georgia,30683,5700 LEXINGTON RD,CLARKE COUNTY,33.9257,-83.2634,562212,HH,Waste,62738.25,Total reported direct emissions<br>Methane (CH4) emissions <br>Municipal Landfills
ATI Allvac - Monroe,MONROE,North Carolina,28110,2020 ASHCRAFT AVENUE,UNION COUNTY,34.98548,-80.517139,331492,C,Metals,42349.728,Total reported direct emissions<br>CO2 emissions (non-biogenic) <br>Methane (CH4) emissions <br>Nitrous Oxide (N2O) emissions <br>Stationary Combustion
ATI LADISH LLC,CUDAHY,Wisconsin,53110,5481 S PACKARD AVE,MILWAUKEE COUNTY,42.947167,-87.8615,332112,C,Other,55745.44,Total reported direct emissions<br>CO2 emissions (non-biogenic) <br>Methane (CH4) emissions <br>Nitrous Oxide (N2O) emissions <br>Stationary Combustion
ATK Launch Systems LLC,Promontory,Utah,84307,9160 North Highway 83,BOX ELDER COUNTY,41.679,-112.432,336415,C,Other,49600.404,Total reported direct emissions<br>CO2 emissions (non-biogenic) <br>Methane (CH4) emissions <br>Nitrous Oxide (N2O) emissions <br>Stationary Combustion
ATLANTIC COUNTY LANDFILL,EGG HARBOR TOWNSHIP,New Jersey,8234,6700 Delilah Road,ATLANTIC COUNTY,39.41653,-74.54036,562212,"C,HH",Waste,71103.35,Total reported direct emissions<br>CO2 emissions (non-biogenic) <br>Methane (CH4) emissions <br>Biogenic CO2 emissions (metric tons)<br>Stationary Combustion<br>Municipal Landfills
ATLANTIC WASTE DISPOSAL INC - SUSSEX COUNTY LAND,WAVERLY,Virginia,23890,3474 ATLANTIC LN,SUSSEX COUNTY,37.061279,-77.177106,562212,"C,HH",Waste,231256.298,Total reported direct emissions<br>CO2 emissions (non-biogenic) <br>Methane (CH4) emissions <br>Nitrous Oxide (N2O) emissions <br>Stationary Combustion<br>Municipal Landfills
AUBURN SANITARY LANDFILL NO 2,AUBURN,New York,13021,311 NORTH DIVISION STREET,CAYUGA COUNTY,42.951487,-76.586758,562212,"C,HH",Waste,4668.098,Total reported direct emissions<br>CO2 emissions (non-biogenic) <br>Methane (CH4) emissions <br>Nitrous Oxide (N2O) emissions <br>Stationary Combustion<br>Municipal Landfills
AUDUBON METALS LLC,HENDERSON,Kentucky,42420,3055 OHIO DR.,HENDERSON COUNTY,37.808762,-87.632861,331314,C,Metals,44827.532,Total reported direct emissions<br>CO2 emissions (non-biogenic) <br>Methane (CH4) emissions <br>Nitrous Oxide (N2O) emissions <br>Stationary Combustion
AUGUSTA COUNTY SVC AUTHORITY LANDFILL,STAUNTON,Virginia,24401,749 Christians Creek Road,AUGUSTA COUNTY,38.0781,-79.0635,562212,"C,HH",Waste,116144.9,Total reported direct emissions<br>CO2 emissions (non-biogenic) <br>Methane (CH4) emissions <br>Stationary Combustion<br>Municipal Landfills
AUSTIN WHITE LIME COMPANY MCNEIL PLANT & QUARRY,AUSTIN,Texas,78728,14001 MCNEIL ROAD,TRAVIS COUNTY,30.45407,-97.72091,327410,"C,S",Minerals,226951.412,Total reported direct emissions<br>CO2 emissions (non-biogenic) <br>Methane (CH4) emissions <br>Nitrous Oxide (N2O) emissions <br>Stationary Combustion<br>Lime Production
AUTUMN HILLS RECYCLING AND DISPOSAL FACILITY,ZEELAND,Michigan,49464,700 56TH AVENUE,OTTAWA COUNTY,42.780647,-85.920569,562212,"C,HH",Waste,81172.898,Total reported direct emissions<br>CO2 emissions (non-biogenic) <br>Methane (CH4) emissions <br>Nitrous Oxide (N2O) emissions <br>Stationary Combustion<br>Municipal Landfills
AUX SABLE LIQUID PRODUCTS INC,MORRIS,Illinois,60450,6155 EAST U.S. ROUTE 6,GRUNDY COUNTY,41.413624,-88.301186,211130,"C,NN-FRAC,W-PROC","Natural Gas and Natural Gas Liquids Suppliers,Petroleum and Natural Gas Systems",279699.31,Total reported direct emissions<br>CO2 emissions (non-biogenic) <br>Methane (CH4) emissions <br>Nitrous Oxide (N2O) emissions <br>Stationary Combustion<br>Petroleum and Natural Gas Systems – Processing
AVA LANDFILL,AVA,New York,13303,7044 ST RTE 294,ONEIDA COUNTY,43.461,-75.412,562212,"C,HH",Waste,71331.3,Total reported direct emissions<br>CO2 emissions (non-biogenic) <br>Methane (CH4) emissions <br>Stationary Combustion<br>Municipal Landfills
AVENAL REGIONAL LANDFILL,AVENAL,California,93204,1200 Skyline Blvd,KINGS COUNTY,36.01195,-120.11535,562212,HH,Waste,21630.75,Total reported direct emissions<br>Methane (CH4) emissions <br>Municipal Landfills
AVINGER GAS PLANT,Avinger,Texas,75630,2339 Avinger Cut Off Road,MARION COUNTY,32.854676,-94.59315,211130,"C,W-PROC",Petroleum and Natural Gas Systems,41361.97,Total reported direct emissions<br>CO2 emissions (non-biogenic) <br>Methane (CH4) emissions <br>Nitrous Oxide (N2O) emissions <br>Stationary Combustion<br>Petroleum and Natural Gas Systems – Processing
AZUSA LAND RECLAMATION CO INC INERT LF,AZUSA,California,91702,1211 W GLADSTONE ST,LOS ANGELES COUNTY,34.11432,-117.92861,562212,"C,HH",Waste,100706.25,Total reported direct emissions<br>CO2 emissions (non-biogenic) <br>Methane (CH4) emissions <br>Stationary Combustion<br>Municipal Landfills
Abbott Laboratories,Casa Grande,Arizona,85193,1250 West Maricopa Highway,PINAL COUNTY,32.894,-111.78312,311514,C,Other,27938.244,Total reported direct emissions<br>CO2 emissions (non-biogenic) <br>Methane (CH4) emissions <br>Nitrous Oxide (N2O) emissions <br>Stationary Combustion
Abbott Nutrition - A Division of Abbott Laboratories,ALTAVISTA,Virginia,24517,1518 MAIN STREET,CAMPBELL COUNTY,37.130556,-79.267778,311514,C,Other,28943.892,Total reported direct emissions<br>CO2 emissions (non-biogenic) <br>Methane (CH4) emissions <br>Nitrous Oxide (N2O) emissions <br>Stationary Combustion
Aberdeen Generating Station,Aberdeen,South Dakota,57401,421 30th Ave SW,BROWN COUNTY,45.45807,-98.50242,221112,"C,D",Power Plants,19778.752,Total reported direct emissions<br>CO2 emissions (non-biogenic) <br>Methane (CH4) emissions <br>Nitrous Oxide (N2O) emissions <br>Stationary Combustion<br>Electricity Generation
Abilene Environmental Landfill,Abilene,Texas,79601,1984 FM 3034,JONES COUNTY,32.523921,-99.750711,562212,"C,HH",Waste,30744.9,Total reported direct emissions<br>CO2 emissions (non-biogenic) <br>Methane (CH4) emissions <br>Stationary Combustion<br>Municipal Landfills
Abilene Regional Landfill,Abilene,Texas,79601,,JONES COUNTY,32.534633,-99.753812,562212,HH,Waste,157146.25,Total reported direct emissions<br>Methane (CH4) emissions <br>Municipal Landfills
Acadia Power Station,EUNICE,Louisiana,70535,30385 CROWLEY EUNICE HWY,Acadia,30.4284,-92.4112,221112,D,Power Plants,2135553.436,Total reported direct emissions<br>CO2 emissions (non-biogenic) <br>Methane (CH4) emissions <br>Nitrous Oxide (N2O) emissions <br>Electricity Generation
Accident Station,Accident,Maryland,21520,196 Texas Eastern Drive,GARRETT COUNTY,39.633667,-79.340479,486210,"C,W-UNSTG",Petroleum and Natural Gas Systems,24029.77,Total reported direct emissions<br>CO2 emissions (non-biogenic) <br>Methane (CH4) emissions <br>Nitrous Oxide (N2O) emissions <br>Stationary Combustion<br>Petroleum and Natural Gas Systems – Underground Storage
Ackerman Combined Cycle,ACKERMAN,Mississippi,39735,2510 PENSACOLA ROAD,Choctaw,33.3806,-89.2039,221112,"C,D",Power Plants,1185036.36,Total reported direct emissions<br>CO2 emissions (non-biogenic) <br>Methane (CH4) emissions <br>Nitrous Oxide (N2O) emissions <br>Stationary Combustion<br>Electricity Generation
Acme Brick - Denton Plant,Denton,Texas,76205,220 East Daniels St,DENTON COUNTY,33.181116,-97.133909,327120,C,Minerals,25480.104,Total reported direct emissions<br>CO2 emissions (non-biogenic) <br>Methane (CH4) emissions <br>Nitrous Oxide (N2O) emissions <br>Stationary Combustion
Acme Brick - Texas Clay Plants,Malakoff,Texas,75148,402 E Bartlett,HENDERSON COUNTY,32.166628,-96.017302,327120,C,Minerals,22655.764,Total reported direct emissions<br>CO2 emissions (non-biogenic) <br>Methane (CH4) emissions <br>Nitrous Oxide (N2O) emissions <br>Stationary Combustion
Ada County Solid Waste Management,Boise,Idaho,83714,10300 Seaman's Gulch Road,ADA COUNTY,43.705695,-116.281228,562212,"C,HH",Waste,105183.616,Total reported direct emissions<br>CO2 emissions (non-biogenic) <br>Methane (CH4) emissions <br>Nitrous Oxide (N2O) emissions <br>Biogenic CO2 emissions (metric tons)<br>Stationary Combustion<br>Municipal Landfills
Addis Carbon Black Plant,Addis,Louisiana,70710,5221 Sid Richardson Road,WEST BATON ROUGE PARISH,30.3288,-91.2792,325180,"C,X",Chemicals,267310.796,Total reported direct emissions<br>CO2 emissions (non-biogenic) <br>Methane (CH4) emissions <br>Nitrous Oxide (N2O) emissions <br>Stationary Combustion<br>Petrochemical Production
AdvanSix Resins & Chemicals LLC,PHILADELPHIA,Pennsylvania,19137,2501 MARGARET STREET,Philadelphia,40.0067,-75.0686,325194,C,Chemicals,164593.68,Total reported direct emissions<br>CO2 emissions (non-biogenic) <br>Methane (CH4) emissions <br>Nitrous Oxide (N2O) emissions <br>Stationary Combustion
Advanced Graphite Materials LLC,ANMOORE,West Virginia,26323,2698 PHILIPPI PIKE,HARRISON COUNTY,39.25496,-80.29091,335991,C,Other,28014.644,Total reported direct emissions<br>CO2 emissions (non-biogenic) <br>Methane (CH4) emissions <br>Nitrous Oxide (N2O) emissions <br>Stationary Combustion
Advanced Magnesium Alloys Corporation,Anderson,Indiana,46013,1820 E. 32nd st.,MADISON COUNTY,40.085371,-85.658666,331492,T,Metals,246012.0,Total reported direct emissions<br>SF6 emissions <br>Magnesium Production
"Advanced Tri-Gen Power Systems, LLC",Mossville,Illinois,61552,1823 East Neal Lane,PEORIA COUNTY,40.843013,-89.564082,221112,C,Power Plants,104021.008,Total reported direct emissions<br>CO2 emissions (non-biogenic) <br>Methane (CH4) emissions <br>Nitrous Oxide (N2O) emissions <br>Stationary Combustion
"Aemetis Advanced Fuels Keyes, Inc.",Ceres,California,95307,4209 Jessup Road,STANISLAUS COUNTY,37.553007,-120.916475,325193,"C,PP","Other,Suppliers of CO2",75134.106,Total reported direct emissions<br>CO2 emissions (non-biogenic) <br>Methane (CH4) emissions <br>Nitrous Oxide (N2O) emissions <br>Biogenic CO2 emissions (metric tons)<br>Stationary Combustion
Aera Energy 25 Hill,Maricopa,California,93252,29235 Highway 33,KERN COUNTY,35.09233,-119.407371,211120,C,Petroleum and Natural Gas Systems,97171.584,Total reported direct emissions<br>CO2 emissions (non-biogenic) <br>Methane (CH4) emissions <br>Nitrous Oxide (N2O) emissions <br>Stationary Combustion
Aera Energy Alberta Finley Shale,Fellows,California,93224,25401 Highway 33,KERN COUNTY,35.23147,-119.57948,211120,C,Petroleum and Natural Gas Systems,67002.548,Total reported direct emissions<br>CO2 emissions (non-biogenic) <br>Methane (CH4) emissions <br>Nitrous Oxide (N2O) emissions <br>Stationary Combustion
Aera Energy Anderson Fitzgerald,McKittrick,California,93251,59231 Main Camp Road,KERN COUNTY,35.299879,-119.742604,211120,C,Petroleum and Natural Gas Systems,216175.836,Total reported direct emissions<br>CO2 emissions (non-biogenic) <br>Methane (CH4) emissions <br>Nitrous Oxide (N2O) emissions <br>Stationary Combustion
Aera Energy Belridge,McKittrick,California,93251,59231 Main Camp Road,KERN COUNTY,35.45306,-119.719337,211120,C,Petroleum and Natural Gas Systems,1589398.364,Total reported direct emissions<br>CO2 emissions (non-biogenic) <br>Methane (CH4) emissions <br>Nitrous Oxide (N2O) emissions <br>Stationary Combustion
Aera Energy Buena Fe,Maricopa,California,93252,29235 Highway 33,KERN COUNTY,35.09233,-119.407371,211120,C,Petroleum and Natural Gas Systems,10462.06,Total reported direct emissions<br>CO2 emissions (non-biogenic) <br>Methane (CH4) emissions <br>Nitrous Oxide (N2O) emissions <br>Stationary Combustion
Aera Energy Calso,McKittrick,California,93251,59231 Main Camp Road,KERN COUNTY,35.299879,-119.742604,211120,C,Petroleum and Natural Gas Systems,36634.912,Total reported direct emissions<br>CO2 emissions (non-biogenic) <br>Methane (CH4) emissions <br>Nitrous Oxide (N2O) emissions <br>Stationary Combustion
Aera Energy Coalinga,Coalinga,California,93210,29010 Shell Road,FRESNO COUNTY,36.24005,-120.32416,211120,C,Petroleum and Natural Gas Systems,202100.388,Total reported direct emissions<br>CO2 emissions (non-biogenic) <br>Methane (CH4) emissions <br>Nitrous Oxide (N2O) emissions <br>Stationary Combustion
Aera Energy Lockwood,Maricopa,California,93525,29235 Highway 33,,35.0892,-119.4069,211120,C,Petroleum and Natural Gas Systems,11506.856,Total reported direct emissions<br>CO2 emissions (non-biogenic) <br>Methane (CH4) emissions <br>Nitrous Oxide (N2O) emissions <br>Stationary Combustion
Aera Energy Lost Hills,McKittrick,California,93251,59231 Main Camp Road,KERN COUNTY,35.299879,-119.742604,211120,C,Petroleum and Natural Gas Systems,186319.748,Total reported direct emissions<br>CO2 emissions (non-biogenic) <br>Methane (CH4) emissions <br>Nitrous Oxide (N2O) emissions <br>Stationary Combustion
Aera Energy MOCO,Maricopa,California,93252,29235 Highway 33,KERN COUNTY,35.09233,-119.407371,211120,C,Petroleum and Natural Gas Systems,184815.004,Total reported direct emissions<br>CO2 emissions (non-biogenic) <br>Methane (CH4) emissions <br>Nitrous Oxide (N2O) emissions <br>Stationary Combustion
Aera Energy Metson,Maricopa,California,93252,29235 Highway 33,KERN COUNTY,35.09233,-119.407371,211120,C,Petroleum and Natural Gas Systems,31077.084,Total reported direct emissions<br>CO2 emissions (non-biogenic) <br>Methane (CH4) emissions <br>Nitrous Oxide (N2O) emissions <br>Stationary Combustion
Aera Energy Penn Zier,Coalinga,California,93210,29010 Shell Road,,36.2615718,-120.4357631,211120,C,Petroleum and Natural Gas Systems,39214.752,Total reported direct emissions<br>CO2 emissions (non-biogenic) <br>Methane (CH4) emissions <br>Nitrous Oxide (N2O) emissions <br>Stationary Combustion
Aera Energy San Ardo,San Ardo,California,93450,66893 Sargent Road,MONTEREY COUNTY,35.954969,-120.864089,211120,C,Petroleum and Natural Gas Systems,263148.108,Total reported direct emissions<br>CO2 emissions (non-biogenic) <br>Methane (CH4) emissions <br>Nitrous Oxide (N2O) emissions <br>Stationary Combustion
Aera Energy Wier Gore Maxwell,Fellows,California,93224,25401 Highway 33,KERN COUNTY,35.23147,-119.57948,211120,C,Petroleum and Natural Gas Systems,14511.096,Total reported direct emissions<br>CO2 emissions (non-biogenic) <br>Methane (CH4) emissions <br>Nitrous Oxide (N2O) emissions <br>Stationary Combustion
Afton Generating Station,LA MESA,New Mexico,88044,10100 WEST AFTON ROAD,Dona Ana,32.1134,-106.848,221112,"C,D",Power Plants,391888.048,Total reported direct emissions<br>CO2 emissions (non-biogenic) <br>Methane (CH4) emissions <br>Nitrous Oxide (N2O) emissions <br>Stationary Combustion<br>Electricity Generation
Ag Processing Inc,Sergeant Bluff,Iowa,51054,2753 Port Neal Circle,WOODBURY COUNTY,42.305176,-96.362271,311224,C,Other,74437.52,Total reported direct emissions<br>CO2 emissions (non-biogenic) <br>Methane (CH4) emissions <br>Nitrous Oxide (N2O) emissions <br>Stationary Combustion
Ag Processing Inc,Aberdeen,South Dakota,57401,4815 8th Avenue,BROWN COUNTY,45.47352,-98.414865,311224,C,Other,52050.004,Total reported direct emissions<br>CO2 emissions (non-biogenic) <br>Methane (CH4) emissions <br>Nitrous Oxide (N2O) emissions <br>Stationary Combustion
Agropur,Jeorme,Idaho,83338,547 West Nez Perce,JEROME COUNTY,42.709612,-114.527559,311513,C,Other,31492.432,Total reported direct emissions<br>CO2 emissions (non-biogenic) <br>Methane (CH4) emissions <br>Nitrous Oxide (N2O) emissions <br>Stationary Combustion
Agropur Inc.,Luxemburg,Wisconsin,54217,2915 County Road Ab,BROWN COUNTY,44.556959,-87.764596,311511,C,Other,27000.188,Total reported direct emissions<br>CO2 emissions (non-biogenic) <br>Methane (CH4) emissions <br>Nitrous Oxide (N2O) emissions <br>Biogenic CO2 emissions (metric tons)<br>Stationary Combustion
"Agropur, Inc.",Lake Norden,South Dakota,57248,408 Dakota Street,HAMLIN COUNTY,44.579444,-97.210556,311513,C,Other,42639.54,Total reported direct emissions<br>CO2 emissions (non-biogenic) <br>Methane (CH4) emissions <br>Nitrous Oxide (N2O) emissions <br>Stationary Combustion
Agua Dulce,Robstown,Texas,78380,5704 FM 2826,,27.747164,-97.818037,486210,"C,W-NGTC",Petroleum and Natural Gas Systems,196240.0526,Total reported direct emissions<br>CO2 emissions (non-biogenic) <br>Methane (CH4) emissions <br>Nitrous Oxide (N2O) emissions <br>Stationary Combustion<br>Petroleum and Natural Gas Systems – Transmission/Compression
Agua Dulce Compressor Station,Houston,Texas,77002,"601 Travis Street, Suite 1900",HARRIS COUNTY,29.76003,-95.36387,486210,"C,W-NGTC",Petroleum and Natural Gas Systems,52394.078,Total reported direct emissions<br>CO2 emissions (non-biogenic) <br>Methane (CH4) emissions <br>Nitrous Oxide (N2O) emissions <br>Stationary Combustion<br>Petroleum and Natural Gas Systems – Transmission/Compression
